#header.st.mp.secs .header.stamp.nsecs .pose.pose.position.x .pose.pose.position.y .pose.pose.position.z .pose.pose.orientation.x .pose.pose.orientation.y .pose.pose.orientation.z .pose.pose.orientation.w
1662155605.580543280 0.137526844139088 -0.0208427701123037 0.0662850947878129 0.0012418215498163 0.000365719430597944 0.00228916979482501 0.999996541909812
1662155605.590640783 0.137456001205111 -0.0208790188471586 0.0662360808072756 0.00108470095420455 0.000727186934695199 0.00224233934765686 0.999996633263656
1662155605.600877285 0.137497968092439 -0.0208493319060717 0.0662577212530261 0.00119127125859733 0.000444096549088593 0.00224487326348115 0.999996672092698
1662155605.610510588 0.137513801583436 -0.0208366349690224 0.0662730845910651 0.00124631904374179 0.000361290801587015 0.00227186263173644 0.999996577393831
1662155605.621203184 0.137525627005258 -0.0208351145124192 0.0662834593010664 0.00126331580365763 0.000319591029986035 0.00224607424166137 0.999996628517642
1662155605.630495787 0.137527664441046 -0.0208331551350295 0.0662789997096404 0.00127819845196253 0.000333554502288217 0.00226395674085721 0.999996564719791
1662155605.640606165 0.13757990509307 -0.0208641231503994 0.066328928025952 0.000762329458890692 0.000203083138079311 0.00236387983693359 0.999996894837453
1662155605.650511026 0.137526872120631 -0.020924121848185 0.0663065264679085 0.000357276981313978 0.000585661305247271 0.00230539870462838 0.999997107241918
1662155605.660807848 0.13757614152296 -0.0208870844557275 0.0663445160624562 0.000517046198652565 0.000279575625872548 0.00240239610487501 0.999996941492847
1662155605.670524597 0.137599749962593 -0.020875042175307 0.0663462083869491 0.000617459368984781 8.96344434727156E-05 0.00241468737807695 0.999996889993092
1662155605.680633783 0.13759527223968 -0.0208726652934796 0.0663311438064427 0.000648708695844908 6.92761767924961E-05 0.00241200430407571 0.999996878302363
1662155605.690579414 0.137595036229513 -0.0208682219509974 0.0663144023220937 0.000679038922575385 0.000108794461787893 0.00241939709474627 0.999996836789497
1662155605.700608492 0.137588978738951 -0.0208632940194742 0.0663232103003663 0.000689092852321298 0.000192640183531837 0.00242208625675859 0.999996810765095
1662155605.710572481 0.137512621295258 -0.02089825786884 0.0663096964088532 0.00052120609375645 0.00062783800397559 0.00238625695465765 0.999996819966339
1662155605.721082449 0.137558263351728 -0.0208688964073017 0.0663279941258668 0.00062366958143365 0.000402106592901277 0.00240664791812046 0.999996828691839
1662155605.730656862 0.1375899290099 -0.0208604101077712 0.0663391365927264 0.000655609654777048 0.00018894286000468 0.00240492126251567 0.999996875410965
1662155605.740333319 0.137603448579189 -0.0208550158082732 0.0663440866150112 0.000698559088486229 7.51337982016964E-05 0.00241353217795375 0.999996840611976
1662155605.750550747 0.137612763919358 -0.0208647499284655 0.0663405527161723 0.000671558643536919 2.19765324558565E-05 0.00241454630542459 0.999996859241846
1662155605.760818481 0.13760504633429 -0.0208690889036942 0.0663344937116903 0.000646912738295431 7.25734814555897E-05 0.00241980410329813 0.99999686038832
1662155605.770330429 0.137543993759358 -0.0209469740939577 0.066324336223025 1.33148980968796E-05 0.000484862589859952 0.0021716074788984 0.999997524423604
1662155605.780885458 0.137569718486681 -0.0208921834540631 0.0663228111001628 0.000453516093579266 0.000299866399840452 0.00233599523299808 0.999997123761345
1662155605.790759325 0.137583461278631 -0.0208591517645001 0.0663304599133724 0.000679925511081337 0.000255124243985931 0.00239866264580212 0.999996859510982
1662155605.800850391 0.137600490778037 -0.0208597946341335 0.0663542040073246 0.000495439382407242 0.000286361816065833 0.00231146127028826 0.999997164838441
1662155605.810667276 0.137596142164779 -0.0208501312081835 0.0663581226786848 0.000500773668440521 0.000333179536541348 0.00235119705080261 0.99999705504114
1662155605.820808649 0.137600081932131 -0.0208687553287761 0.0663739577622247 0.000412683076229548 0.000186849559846651 0.00230770359364472 0.999997234638896
1662155605.830718279 0.137603695903842 -0.0208618510525735 0.0663585957328591 0.0005188877366853 0.000162923766367462 0.00238173061971585 0.999997015781554
1662155605.840886593 0.137609488965244 -0.0208769221597159 0.0663641694770811 0.000374465115110726 0.000145737634158027 0.00230964408385535 0.999997252037235
1662155605.850748301 0.137599192457549 -0.0208830292309018 0.0663567981614805 0.000378008719307235 0.000177582456503968 0.00232090443122626 0.999997219485082
1662155605.860523701 0.137592700707561 -0.0208776771478544 0.0663485843722388 0.00041473272377854 0.000267423997459021 0.00231427454650729 0.999997200304027
1662155605.870521784 0.137588966970467 -0.0208786459469941 0.0663590098326647 0.000407144774256605 0.000276847915693162 0.00228368742105318 0.999997271177038
1662155605.880471230 0.137583813717746 -0.020850403008618 0.066369952618443 0.000549601543945207 0.000338665127982955 0.00237423018211928 0.999996973133675
1662155605.890757799 0.137594487858286 -0.0208638365087287 0.0663702274009487 0.000477817010712202 0.000265461407645027 0.00233108513893521 0.9999971336282
1662155605.901086092 0.137593884722513 -0.0208657883059421 0.0663676274034415 0.000496118954849247 0.000176737345275389 0.00234451748342412 0.999997112930362
1662155605.910487175 0.137598559756445 -0.0208771964044443 0.0663499561505278 0.000442855534235326 0.000122980975130489 0.00234365001935847 0.999997148026252
1662155605.920528650 0.137596332122387 -0.020879495235475 0.0663399298465886 0.000459318063987551 0.000165570831994396 0.00234251114959923 0.999997137123965
1662155605.930665016 0.137537927940457 -0.0208349312831443 0.066363847413396 0.00074064628885073 0.000413334874649546 0.0025603179344724 0.999996362678798
1662155605.940619707 0.137580630738052 -0.020863341348039 0.0663648161251095 0.000533718957889626 0.000324313030835596 0.00237690158979696 0.99999698014812
1662155605.950593948 0.137598370996467 -0.0208812033900681 0.066365096260253 0.000386746746067273 0.000256646352431811 0.00229466360959312 0.999997259536205
1662155605.961009264 0.137528826651039 -0.0209312334085839 0.0663243137677547 0.000173139406498978 0.000673610431405245 0.00222174530705198 0.999997290056788
1662155605.970751047 0.137566145399489 -0.0208875909847728 0.0663492472685875 0.000373949026601715 0.000461673102808265 0.0023252513512207 0.999997120109664
1662155605.981387615 0.137596371018865 -0.0208826103669651 0.066361105221738 0.000398686454761993 0.00020452485981756 0.00233252315166399 0.99999717927394
1662155605.990743160 0.137606115506927 -0.0208817869278389 0.0663542269287606 0.000434948860270822 0.000122889312737044 0.00235839149624469 0.99999711685017
1662155606.469923 0.137528626330171 -0.0209365307421682 0.0663044384598022 0.000198984639558799 0.000556035404818681 0.00225088629157327 0.999997292367355
1662155606.10709524 0.137573916163774 -0.0209094915972596 0.0663249747307739 0.000315606512874332 0.000303402203200594 0.00225672767068365 0.999997357757134
1662155606.21153688 0.137524270403262 -0.0209470297597608 0.0662952100704462 0.000135443588284646 0.000655940292489333 0.00218167739377637 0.999997395837866
1662155606.30382872 0.137561866067334 -0.0208905473172506 0.0663450300026129 0.000336563931496416 0.000423393152933443 0.00227998830390684 0.999997254555076
1662155606.40592194 0.137584125584306 -0.0208632902683797 0.0663703440252402 0.000449053032372465 0.000278617862968347 0.00233654861678848 0.999997130628593
1662155606.50821066 0.137586191442422 -0.0208540403435189 0.0663664323567027 0.000544352262749292 0.000243481102283002 0.00240351031063187 0.999996933763874
1662155606.60640574 0.137594088693459 -0.02087144053251 0.0663558015531836 0.000476578482065924 0.000205546718254833 0.00236128827126761 0.999997077467026
1662155606.70518255 0.137599009770181 -0.020887007590026 0.0663478330334972 0.000407026351319778 0.000137898856687894 0.0023329538091272 0.999997186316729
1662155606.80831289 0.137602062698939 -0.0208902872114456 0.0663405274709171 0.000397262690760412 0.000141412203763655 0.00231838987024354 0.999997223623521
1662155606.105275631 0.137600300088003 -0.020883127056231 0.0663497926482364 0.000411497099028556 0.000163246281860007 0.00229904976271411 0.999997259192431
1662155606.108166933 0.137590765065152 -0.0208689292195752 0.0663500951062846 0.000468856950933222 0.000244403339916138 0.00231880490191359 0.999997171788696
1662155606.112270117 0.137589966402745 -0.0208665191012872 0.0663568513845633 0.00045436757226433 0.000281383318878757 0.00231514375808247 0.999997177238173
1662155606.122086048 0.13750541710258 -0.0209095890865341 0.0663271306681711 0.000240189961673789 0.000784567501842798 0.00227076657517962 0.99999708518734
1662155606.130616426 0.137565537743588 -0.0208891981257715 0.0663532260561981 0.00033858432815089 0.000443503066303892 0.00230308296645808 0.999997192234023
1662155606.140973330 0.137530602232756 -0.0209385605869969 0.0663291013518884 0.000146645090459084 0.000608734493083652 0.00220567639918842 0.999997371461823
1662155606.150549650 0.13758161573876 -0.0209027014848768 0.0663362059014217 0.000336650427291033 0.000254127378365429 0.00230269100037738 0.999997259846906
1662155606.160684109 0.137601470665972 -0.0208813044752186 0.0663323564063448 0.000414497219091419 0.000126162598110208 0.00233577739100923 0.999997178206235
1662155606.170471668 0.137594452081713 -0.0208593904071196 0.0663335789773918 0.000506285237391034 0.000222627570931188 0.00236995800114613 0.999997038701963
1662155606.180570841 0.1375932360461 -0.0208532112750262 0.0663549628041898 0.000513900655444883 0.000272912855190926 0.0023674490887126 0.999997028301035
1662155606.190973282 0.13758641325431 -0.0208576494474713 0.0663690699452412 0.000634987972429783 0.000184331088424506 0.00238143890792721 0.999996945776561
1662155606.201005936 0.137588025834732 -0.0208642009811294 0.0663961318877628 0.000478110520599473 0.000227703269824025 0.00232548173591438 0.999997155844778
1662155606.210710287 0.13758235242752 -0.0208699020423569 0.0663886031716526 0.000400023112144632 0.000258614297105374 0.0023229611268821 0.999997188472626
1662155606.220788240 0.137574424552974 -0.020864902795827 0.0663431169942975 0.000597609621124612 0.000180167135344678 0.00240628511291783 0.999996910093175
1662155606.230706215 0.137581593563435 -0.0208783187391161 0.0663335820011466 0.000425875912924452 0.000207198819151061 0.00232924462484022 0.999997175155626
1662155606.240802765 0.137578946244286 -0.0208849625060582 0.06630146318106 0.000541405231417462 0.000133434867470546 0.00235700882398697 0.999997066788854
1662155606.250798464 0.13757311773902 -0.020881825321491 0.0663012603242028 0.000613010959707169 0.000169344507372813 0.00237358147926054 0.999996980821622
1662155606.261046171 0.137567743260436 -0.0208939245172244 0.0663214071322488 0.000581777543729573 0.000236661276163204 0.00234988044862813 0.999997041790427
1662155606.270860434 0.137577512838886 -0.0208800860810109 0.0663586449724328 0.000617701557485081 0.00022038169656834 0.00236960904341336 0.999996977410969
1662155606.280605078 0.137511514016232 -0.0209064220232475 0.0663437480046761 0.000510711372098999 0.00058637412594161 0.00237298707770412 0.999996882131642
1662155606.291284084 0.137551907521875 -0.0208817178305247 0.066350044459049 0.000634260444202863 0.000343538975867733 0.00241702376328678 0.999996818841033
1662155606.300532103 0.137582221141832 -0.0208791932878636 0.0663333965593383 0.000659577835838077 0.000134770233132981 0.0024029629806581 0.999996886277339
1662155606.311027288 0.137593552478093 -0.0208933377711383 0.0663067411693945 0.0006158822192102 5.85780649371065E-05 0.00238105661761909 0.999996973909663
1662155606.321002245 0.137526074300951 -0.0209459530586488 0.0662534178808867 0.000364878429382711 0.000470518104593079 0.00227647564605349 0.999997231564406
1662155606.330914736 0.13755974851853 -0.0208940318914736 0.066290153610071 0.000562292445897986 0.000284072894248058 0.00236690434726293 0.999997000443003
1662155606.340705872 0.137514252024672 -0.0209187135598109 0.0663224568139865 0.000259437542037069 0.000623869778143034 0.00226654518673433 0.999997203122577
1662155606.350570917 0.137563605087607 -0.0208842742532918 0.0663510976093691 0.000523356903314132 0.00035199538227884 0.00234039552475055 0.999997062369179
1662155606.361387968 0.137577084444965 -0.020866241692785 0.0663649662261549 0.000639127703882282 0.000234434423226373 0.00238711040066076 0.99999691912606
1662155606.370538473 0.137579455758656 -0.0208646122891028 0.0663586238590365 0.000690527293151273 0.000173043387433318 0.00240636287166093 0.999996851318628
1662155606.380771399 0.137583510260545 -0.0208741351674651 0.066340223830588 0.000647230176624439 0.000113679190720167 0.00238516521603043 0.999996939574532
1662155606.394395113 0.137581540579637 -0.0208750662927763 0.0663168074238025 0.000655118187330871 0.000118769809861282 0.00235463915455337 0.99999700619039
1662155606.401204824 0.137579045331304 -0.0208728682483393 0.0663079867768173 0.000686306045411212 0.000177469180620036 0.00239272274772797 0.999996886179128
1662155606.410571337 0.137595061881487 -0.0209020995372199 0.066348583342858 0.000260021127602706 0.000149719885242388 0.00223867411362132 0.999997449153036
1662155606.422173023 0.13751693216554 -0.0209221668242857 0.0663131251446359 0.000230234077716832 0.000720434287734577 0.00226253703074159 0.999997154443096
1662155606.430649042 0.137564260358841 -0.0208903275347302 0.0663582640914674 0.000321133811417146 0.000465788537913715 0.00228431675578868 0.999997230902401
1662155606.440771341 0.13759175067512 -0.0208716413944299 0.0663725775827133 0.000395493942664515 0.000250950380699442 0.00232900617065519 0.99999717816607
1662155606.450621367 0.137599929613959 -0.0208669622730914 0.0663647505630284 0.00044141008904558 0.000200855946414546 0.00234461173120412 0.999997133801517
1662155606.460972071 0.137607524265677 -0.0208856434032401 0.0663608112415839 0.000359155997998632 0.000109746070608001 0.00227571760747248 0.999997340033231
1662155606.471113205 0.137599573405666 -0.0208874613227424 0.0663540341949721 0.000344324114944693 0.000182853421690741 0.00226892715480949 0.999997349984735
1662155606.481186628 0.137606307921893 -0.0208914337745206 0.066358928494406 0.000315033106504683 0.000150252605610862 0.00224779090475889 0.999997412804524
1662155606.490851402 0.137600407244054 -0.0208850533743254 0.066345233553494 0.000341616728835216 0.000228949850915151 0.00225607482350953 0.999997370500425
1662155606.500744343 0.137588844452234 -0.0208692762830293 0.0663478697295939 0.000448317286400356 0.000319796687764753 0.00228536956932076 0.999997236910691
1662155606.510475874 0.137593803659518 -0.0208682761968632 0.0663767134937283 0.000379679873767071 0.000266635373780586 0.00228939285258286 0.999997271711545
1662155606.520788908 0.137595171168986 -0.0208765343406806 0.0663818634774118 0.000342708826658863 0.000277676515342055 0.0022681933691717 0.999997330369761
1662155606.531542540 0.137605403298341 -0.0208791056421803 0.0663722330054381 0.000345123930595125 0.000180037833787582 0.00227571409622084 0.999997334797748
1662155606.540812016 0.137527878446151 -0.0209194147795784 0.0663068510429724 0.000240709583309632 0.000603795263176773 0.00228724000527005 0.99999717300837
1662155606.550534725 0.137562982688414 -0.0208843221687585 0.0663311346190526 0.000377682778057022 0.000350301494681232 0.00231904162092402 0.999997178341988
1662155606.560861588 0.137507688481533 -0.0209252712329434 0.0663027495624284 0.000142767552130255 0.000751078842050611 0.00224169589173024 0.999997195145529
1662155606.570732355 0.137560325112483 -0.0208795816623348 0.066342580760535 0.000322140391331184 0.000504900331506944 0.00230505702802508 0.999997164003337
1662155606.580657244 0.137512844613658 -0.0209227738429766 0.0662927586453773 0.000326565799244313 0.000689851516097746 0.00223810375749655 0.999997204172407
1662155606.591446638 0.137566035044209 -0.0208834354441447 0.066322031406597 0.000580367620741257 0.000285617766628088 0.00234618237825252 0.999997038508395
1662155606.600967169 0.137507690163027 -0.0208186013819906 0.0663546145429893 0.000931192177356904 0.000427313007867824 0.00260761977646898 0.999996075294908
1662155606.610759497 0.137554476330528 -0.0208508990767095 0.0663363496424707 0.000743866169832467 0.000246145494125321 0.00246371340839932 0.999996658090993
1662155606.620569229 0.137584065294142 -0.0208706696511136 0.0663137672300264 0.000635512135462518 0.000176499872055281 0.00241187814166108 0.999996873903787
1662155606.630663395 0.137581524866764 -0.0208757897954115 0.0663018932788255 0.000596752532915875 0.000206519652838579 0.00234832698553986 0.999997043294536
1662155606.640414000 0.137577158685305 -0.0208599877244533 0.0663110724772022 0.000687464093997632 0.000246958448094213 0.00240713747499605 0.999996836042604
1662155606.650552034 0.137571095107918 -0.0208552057810914 0.0663238151650017 0.00071059640140139 0.000297207011857518 0.00242818680443255 0.999996755310229
1662155606.661246300 0.137577946996841 -0.0208610363590462 0.0663468311823068 0.000669877343858903 0.000247547009570316 0.00239240471636633 0.999996883188089
1662155606.670509338 0.137583758441054 -0.0208694382125029 0.0663560360513287 0.000627903433469204 0.000197765982810237 0.00239691104278774 0.9999969107176
1662155606.681089878 0.137584635106007 -0.0208773649991274 0.0663484736751628 0.00061032194373883 0.000155491625123087 0.00238957575605273 0.99999694662463
1662155606.690689325 0.137576966647473 -0.0208727947103216 0.0663276623022018 0.000636835291225734 0.000130643030219686 0.00237428835547897 0.999996970060116
1662155606.700696945 0.137514210700587 -0.0209183223852623 0.0662791666274574 0.000421321293510801 0.000496727725099708 0.00229997623308464 0.999997142926248
1662155606.710589647 0.137556069282152 -0.0208871764316304 0.0662949278161687 0.000542666463079079 0.00029188317628122 0.0023504334586986 0.99999704788628
1662155606.721010923 0.137560828716437 -0.020861696838556 0.0663172153556451 0.000673318827105648 0.000305799312027466 0.00241047011141825 0.999996821376837
1662155606.730618000 0.137503961352192 -0.0209217264269064 0.0662856343209572 0.000417125235884206 0.000658732596728252 0.00233633036179496 0.999996966815271
1662155606.740489721 0.137559392623926 -0.0208935442177171 0.0663237733856643 0.000533390224777832 0.000352192490433297 0.00236338227597092 0.999997002935975
1662155606.750504971 0.137584141039796 -0.0208790848111845 0.0663508967254824 0.000615764386152443 0.000200383021162148 0.00236977266914777 0.999996982425327
1662155606.760727406 0.137578664021304 -0.0208609441485376 0.0663608556604655 0.000675018053536472 0.000197216353149489 0.00240232742377978 0.999996867135434
1662155606.770565271 0.137574739997848 -0.0208574905604946 0.066355461135971 0.000676884023007941 0.000132725585373883 0.0024101061938614 0.999996857795798
1662155606.780580521 0.137590370168746 -0.0208795210695296 0.0663770614627242 0.00029828612403151 5.54793352092488E-05 0.00226235786057455 0.999997394839476
1662155606.791170597 0.137595067654884 -0.0208821177055192 0.06634549051952 0.000370126514253023 0.000169481626795417 0.00228859339547325 0.999997298308355
1662155606.801134348 0.137530292829672 -0.02093643959566 0.0663053470888665 0.000143209382177709 0.000571394951893782 0.00221476205782081 0.999997373911205
1662155606.810461283 0.137572175247276 -0.0209114570795156 0.0663250770115141 0.0002698395838028 0.00040185201321535 0.00224139939039257 0.999997370912408
1662155606.820675373 0.137532137564975 -0.0209561752419087 0.0663085860187516 5.37956894597633E-05 0.000608083743660126 0.00217190215642637 0.999997455088064
1662155606.830489635 0.137580556682081 -0.0209093524398715 0.0663533255562225 0.000272323065344257 0.0003440255931011 0.00227394875970057 0.999997318318892
1662155606.840445518 0.137590117207164 -0.0208773850100205 0.0663769329477847 0.000434096265204429 0.00021489775174135 0.00235602286662306 0.999997107264335
1662155606.850791693 0.137594419212629 -0.0208734502159663 0.0663661242848003 0.000428264950877529 0.000133393717872616 0.00233821371662034 0.999997165772614
1662155606.861683369 0.137595894990673 -0.0208768684889083 0.0663563401441453 0.000400688870397592 0.00012573615600272 0.0023361186357638 0.999997183091015
1662155606.870562792 0.137595955219792 -0.020887393859536 0.066337548185517 0.000353486377204675 0.000228193308625393 0.00228913384897221 0.999997291417739
1662155606.880593538 0.137593059346122 -0.0208887884553453 0.0663324991860162 0.000351865429286104 0.0002918056277103 0.00229301189670866 0.999997266565281
1662155606.890879154 0.137522060604462 -0.0209611419099876 0.0662832416046835 1.79262694642309E-05 0.000715089986744581 0.0021870668076381 0.999997352529064
1662155606.900715590 0.13757611943365 -0.0209173796123734 0.0663280436679721 0.000206290307786154 0.000396725566291079 0.00226477334418202 0.999997335424566
1662155606.910568953 0.137603183924688 -0.0208990931615934 0.0663600029400037 0.00030486087701216 0.000182079214346633 0.00229129989833789 0.999997311922977
1662155606.921416759 0.13760584772383 -0.0208923780542278 0.0663767180421574 0.000346015823569168 7.41075395399314E-05 0.00231259136137813 0.999997263348113
1662155606.930680037 0.137601264449896 -0.0208776692128883 0.0663681833489854 0.000394300709994559 7.43183766696796E-05 0.00232930099083755 0.999997206677109
1662155606.940571070 0.137488687012131 -0.0208117790679401 0.066381035433797 0.000837100645918024 0.000536268494022449 0.00268758399537839 0.99999589427771
1662155606.950785637 0.137548878591563 -0.0208613588027936 0.0663425698585212 0.000547303712077661 0.000419144709396657 0.0024614293829379 0.999996733066238
1662155606.960583925 0.13758323209774 -0.0208902041370005 0.0663339909223133 0.000384199938730592 0.000286807162334296 0.00232755232369617 0.999997176312832
1662155606.970476151 0.13760523449964 -0.0209083233444037 0.0663298580905953 0.000278266080867759 0.000186412526695804 0.00224187911169291 0.999997430895602
1662155606.980582952 0.137532088606627 -0.0209570889151153 0.0663072936475952 6.77261594679665E-05 0.000574420535164582 0.00217966239457069 0.999997457260497
1662155606.991037846 0.137568856105761 -0.0209102390786557 0.0663504186160586 0.000260709527768995 0.000326406389527766 0.00226367796512367 0.99999735062293
1662155607.545263 0.137592133239083 -0.0208941290622637 0.066360752167271 0.000320615532345601 0.00015939955463471 0.00229055315017711 0.999997312578952
1662155607.10832548 0.137597348774453 -0.0208894596797982 0.0663512273542744 0.000335147061317248 6.40048729993389E-05 0.0023097716763155 0.999997274264297
1662155607.20476341 0.137524490322049 -0.020922418701713 0.0663078048706949 0.000221946999310657 0.000497719275703563 0.00229084458659384 0.999997227519922
1662155607.30811548 0.137567698745633 -0.0208877591036718 0.0663353474510206 0.000376955297364546 0.000356599771371671 0.00232274534986775 0.999997167794361
1662155607.40610313 0.137579013022111 -0.0208775321847124 0.0663531513151484 0.000430488289100873 0.000322948399643624 0.00233184077875815 0.999997136447972
1662155607.51322699 0.137590173897783 -0.0208778793925036 0.0663540575476933 0.000411141485554519 0.000253777336974325 0.00231199688723601 0.999997210611876
1662155607.60744286 0.137594673806908 -0.020886353077718 0.0663572381352625 0.000346540166657977 0.00014156591252974 0.00228695100818504 0.99999731485914
1662155607.70754290 0.13752049214051 -0.0209347676780209 0.0663199754468127 0.00016312062729613 0.000535270104841116 0.00222704084511766 0.999997363580548
1662155607.80796242 0.137565538710304 -0.0208911413210737 0.0663586019348183 0.000353965921266832 0.000244232278181952 0.00231201284283014 0.999997234824544
1662155607.90668678 0.137578807454859 -0.0208641445929583 0.0663740852798787 0.000444065947925969 0.000157095919143234 0.00234407458499974 0.999997141716937
1662155607.100812912 0.137585481036049 -0.020865368254771 0.0663538812528389 0.000448946756054635 0.000211364870038849 0.00234767778260889 0.999997121086921
1662155607.111020803 0.137588260435321 -0.0208673698963227 0.0663364952809648 0.000463565840502887 0.000254961429962172 0.00233980179517165 0.99999712271103
1662155607.120674610 0.137586836550803 -0.0208721080366382 0.0663404255632848 0.000469710402841482 0.000278325779673005 0.00233163786150099 0.999997132682478
1662155607.131188154 0.137583710430977 -0.0208782731743694 0.0663747978500897 0.00040822456726177 0.00029629840419689 0.002325554277873 0.99999716867532
1662155607.140453339 0.137591325922566 -0.0208844012287396 0.0663992357280931 0.000285793679506703 0.000249775924332085 0.00225256024984034 0.999997390950436
1662155607.150547743 0.137579288646671 -0.020868909817017 0.0663686447649832 0.000555609967946356 0.000143515544687123 0.00238033409997036 0.999997002351418
1662155607.160793781 0.137580953998235 -0.0208591665389751 0.0663405001162817 0.000671798526754767 3.254626539595E-05 0.00242711270214145 0.999996828371375
1662155607.170745611 0.137521866528915 -0.0208248655255486 0.0662717454331024 0.0012222860593268 0.000258562757779531 0.00234595444793642 0.999996467824369
1662155607.180691004 0.137510679917735 -0.020832265247587 0.0662450526734445 0.00130205059964178 0.000355471676790277 0.00223664141104597 0.999996587864538
1662155607.190949917 0.137516229163547 -0.0208376358400011 0.0662556179044362 0.00120094875224578 0.000513569177498722 0.00222483145204104 0.999996672042063
1662155607.201224089 0.137509191301087 -0.0208463793086347 0.0662612060201266 0.00122876983001739 0.000539094793807743 0.00223345546003619 0.999996605584045
1662155607.210515738 0.137501584202044 -0.0208411199366707 0.0662794839254355 0.00125030376185745 0.000492621565713591 0.00227579414792124 0.999996507407346
1662155607.220937252 0.137434835302134 -0.0208835819922497 0.0662619585769523 0.00106326681002145 0.000844012413950088 0.00220632094163532 0.999996644622388
1662155607.230758429 0.137476284166543 -0.020843798307119 0.066286185932183 0.00122855337659708 0.000566056040211665 0.0022495859577429 0.999996554794853
1662155607.241411924 0.137544061000192 -0.0208396903227572 0.0663327274023153 0.000876897370730247 0.000291768612062022 0.00238969180822061 0.999996717642882
1662155607.250765085 0.137504938549821 -0.0209120970138484 0.066283683653343 0.000453535261349187 0.00055715708243459 0.00233410958436299 0.999997017903353
1662155607.260971546 0.137555962578783 -0.0208964295204014 0.0662865295119124 0.000529283855618028 0.000290655932112203 0.00237328585059997 0.999997001442204
1662155607.270581007 0.137575255931403 -0.0208858382807978 0.0662973908560991 0.000596549166559776 0.000245048828558274 0.00238604001486308 0.999996945442639
1662155607.280715704 0.137500098287913 -0.0209372170096005 0.0662821599363675 0.000376951370449746 0.000702373902450214 0.00229251222884662 0.999997054479484
1662155607.290462494 0.137553157837133 -0.020892718538083 0.0663358997894355 0.000572376080588335 0.000413473404876907 0.00233878334637378 0.999997015755158
1662155607.300473213 0.137567351198 -0.0208743514825861 0.0663661752062296 0.00060676210263072 0.000308207938888381 0.00235086123476469 0.99999700514575
1662155607.310600758 0.137561585501958 -0.0208565242288593 0.0663645238348567 0.000685462017056339 0.000270772661682357 0.00240180910678027 0.999996844064221
1662155607.321074247 0.137556165392372 -0.0208557862932276 0.0663466215791678 0.000701556217807367 0.000273458882020892 0.0024178978248177 0.999996793400169
1662155607.330781221 0.13756230275564 -0.020868929349642 0.066316837982197 0.000657474809944475 0.000245176232652332 0.00237979402733658 0.9999969220939
1662155607.340377331 0.137579836158803 -0.0208914381370278 0.0662924879721291 0.000587008684631151 0.00017730336465802 0.00232617688329522 0.999997106439227
1662155607.350941896 0.137583097328473 -0.0208902451766731 0.0662896331715381 0.000636049573980257 0.000205909334524456 0.00237417364186064 0.999996958166974
1662155607.360787153 0.137568843741932 -0.0208812492917942 0.0663141583021312 0.00067100569802424 0.000292137537370925 0.00241267362222809 0.99999682170215
1662155607.370487928 0.137567068466492 -0.0208685593173175 0.0663470931214943 0.000726456082320232 0.000312346077025977 0.00244217849634204 0.999996705228111
1662155607.380746365 0.137563218459407 -0.0208639360670066 0.0663676188882993 0.000700564915171876 0.000319863293784411 0.00240692541545262 0.999996806798759
1662155607.390657187 0.137556536416379 -0.0208523402615906 0.0663690647272219 0.000759828661225866 0.000329447475642263 0.00244223608759239 0.999996674799
1662155607.400927067 0.137567427573946 -0.0208634231450138 0.0663425867660733 0.000731332720782233 0.000235653870289853 0.0024244848950058 0.999996765741818
1662155607.411334991 0.13750514643485 -0.0208183184130307 0.0663327047651121 0.00101490371005211 0.000438731156389051 0.00265129099407653 0.999995874062935
1662155607.420735836 0.137501427039703 -0.0209112437075705 0.0662622842358806 0.000562507809114707 0.00059921300222819 0.00239428741414472 0.999996795953826
1662155607.430700302 0.137560895499302 -0.0208871559633169 0.0662840823857529 0.000648144696050539 0.000293444009460811 0.00240817145987417 0.999996847250372
1662155607.440551519 0.137597898669896 -0.0208840158229723 0.0663387948068823 0.000456637946166867 0.000160499158250231 0.00236105942454297 0.999997095556581
1662155607.450537682 0.137546866884809 -0.0209469888437706 0.0663304450614464 5.55411438559304E-05 0.000550319656798385 0.00216772239086084 0.999997497519114
1662155607.460616350 0.137571673466512 -0.0208898241951393 0.0663758600365298 0.000329354360847201 0.000435460475055483 0.00231138152430124 0.999997179704386
1662155607.470818996 0.137510316645961 -0.0209054605497619 0.0663780638709429 0.000255100198228419 0.000718485686883689 0.00230685256394874 0.999997048563071
1662155607.480349541 0.13757269720213 -0.0208864187277429 0.0663794413248495 0.000356523311640063 0.000346824273296644 0.00230895959806772 0.999997210651622
1662155607.490732908 0.137598873796427 -0.0208817294626302 0.066355147925233 0.000412722099184385 0.000160873045454138 0.00232756131078884 0.999997193116098
1662155607.500938654 0.137610097682927 -0.0208844810170678 0.0663282870563496 0.000447067516902581 9.86369388804365E-05 0.00231045060443871 0.999997226106549
1662155607.510511875 0.137538055004927 -0.0209359085460555 0.0662834206030862 0.00023164958994739 0.00059158788719788 0.00225477177601302 0.999997256180173
1662155607.520607948 0.137567940194186 -0.02089704306263 0.0663253722805299 0.000336035728001374 0.000427678543636192 0.00232230090214249 0.99999715554144
1662155607.530836582 0.13751369432145 -0.0209467356572109 0.0663120253531509 0.000116024318310382 0.000726003414033847 0.00223457948353011 0.999997233052837
1662155607.541087389 0.137502183593026 -0.0209599381777942 0.0663235741445704 5.89480291557677E-05 0.000803826509456142 0.00221621386167786 0.999997219388929
1662155607.550542593 0.137563390352468 -0.0208995275503782 0.0663792325395793 0.000338627565904033 0.000431655211399185 0.00229916488059522 0.999997206419798
1662155607.560463428 0.137584567780763 -0.0208776855107158 0.0663990755059796 0.00044714052581822 0.000260833882981346 0.00233666699059072 0.999997136005803
1662155607.570530176 0.13759806672768 -0.0208874876081386 0.0663791079874593 0.000372766679922534 0.000105118886799851 0.00229334806415007 0.999997295271881
1662155607.580704927 0.137596765013268 -0.0208844011676044 0.0663358337682663 0.000434452104726002 7.81993774540236E-05 0.00230741994100325 0.999997240471613
1662155607.590732098 0.137599192741796 -0.0208945604418835 0.066318440993115 0.000362656552196398 9.9695008506978E-05 0.00228307892632327 0.999997323042989
1662155607.600568056 0.137597040841455 -0.0208811119812513 0.0663184035418379 0.000466190714358753 0.000246945670809008 0.00234073448821186 0.99999712131961
1662155607.626542330 0.137599130855792 -0.0208800283598406 0.066357745489829 0.000446492397265179 0.000278594372342051 0.00233311169022448 0.999997139806387
1662155607.628479242 0.137601707156945 -0.0208866614851505 0.0663671245777708 0.000416432343766489 0.000263119427473695 0.00232107957234275 0.999997184967681
1662155607.630379200 0.137599935464243 -0.0208875967266709 0.0663754442575785 0.000424759551042373 0.000241495272091255 0.00232900078672353 0.999997168504037
1662155607.640461206 0.137609214214948 -0.0208850149762931 0.066379195789913 0.000416762000293697 0.000123458209641851 0.00232831979656335 0.999997194993981
1662155607.650905371 0.1375971566479 -0.0208722919053665 0.0663646110801234 0.000456722591503947 0.000188243861390836 0.00233873552398929 0.999997143139054
1662155607.660470486 0.137592951764014 -0.0208756706415842 0.0663371229314784 0.000442604750923128 0.000175034829123435 0.00233016368897718 0.999997171897213
1662155607.670369864 0.137609956126073 -0.0208933270080895 0.0663142446654842 0.000364688787248161 0.000127738089646969 0.00225412565968427 0.999997384798569
1662155607.680794477 0.137607510454653 -0.0208981950305214 0.0663168570762185 0.000385056209553048 0.000152457021307441 0.00227736873860604 0.999997321037211
1662155607.691264391 0.137609414395551 -0.0208993292378225 0.066338059384905 0.000380691865738323 0.000200264746429719 0.00228630119200998 0.999997293894335
1662155607.700723648 0.137537086465982 -0.0209413592771092 0.0663310381121415 0.000181432001394748 0.000630555972539645 0.00222757297083071 0.999997303697191
1662155607.711070061 0.137570045504121 -0.0208901817599657 0.0663737291043214 0.000366495180417793 0.000421483954216154 0.00232917688227314 0.99999713148039
1662155607.720437288 0.137584415033543 -0.020868946531415 0.0663724310996088 0.000440621905431187 0.000300993958713789 0.00235365524413806 0.999997087777441
1662155607.730600119 0.13758799472446 -0.0208715550839897 0.0663501840286302 0.000460025050528197 0.000256256501987419 0.00233164075275811 0.999997143077097
1662155607.740601301 0.137531008986698 -0.0209389020226486 0.0662862645498873 0.000141216832009805 0.000561796351403727 0.00217637047583283 0.999997463924592
1662155607.751206875 0.137582511810046 -0.0209121224775796 0.0663019354761313 0.00024835000290925 0.000277316005909437 0.00224181033873049 0.999997417849622
1662155607.761227846 0.137543012497856 -0.0209593260218072 0.0662841813353643 1.29883659849279E-05 0.000514260014756856 0.00214188368223228 0.999997573848872
1662155607.770318747 0.137517378761556 -0.0209607915808232 0.0662875016380835 1.28746818363976E-05 0.000655600961413176 0.00218012207399824 0.999997408542023
1662155607.780421734 0.1375768286063 -0.0208978314618723 0.0663380957614515 0.000316107203535706 0.000331213993074124 0.00230096530713262 0.999997247963003
1662155607.791712046 0.137602162448507 -0.0208818778234714 0.0663722750577717 0.000383695807061817 0.000231719929716614 0.00233063091579447 0.999997183618201
1662155607.800509214 0.137613680085632 -0.0208777527529917 0.066377844746939 0.000390815374744331 0.000223673760703327 0.00232444956356371 0.99999719708058
1662155607.810572147 0.137616071628038 -0.0208857559017324 0.0663600183123784 0.00033741373171536 0.000203208533148048 0.00227061604306152 0.999997344577699
1662155607.820523500 0.137609663975726 -0.0208878887402204 0.0663402330017826 0.000334257994848107 0.000172494424917456 0.00228663193331219 0.999997314912928
1662155607.830465317 0.137531359664916 -0.020930154808239 0.0662835552604719 0.000172973663756915 0.000588395265132796 0.00223548393862177 0.999997313238432
1662155607.840444088 0.137572153343201 -0.0208950851429575 0.0663102959153337 0.000324281905619061 0.000349458915723599 0.00228719777695141 0.999997270719995
1662155607.850790501 0.137526350201871 -0.0209385678557346 0.0662996337561294 0.000148392376371975 0.000652287533971327 0.00224045586995589 0.999997266426048
1662155607.860416174 0.137580489168884 -0.0209043573175128 0.066347878522726 0.000313081756325468 0.000331600407470806 0.0022916620888985 0.9999972701499
1662155607.870353699 0.137607468507794 -0.0208932654237704 0.0663673547037952 0.000350892871271272 0.000171053622451282 0.00230458380616289 0.999997268251134
1662155607.880679607 0.13761241985318 -0.0208856742608499 0.066370166525249 0.000389347238125641 0.000132402451502868 0.00229058313666242 0.999997292050639
1662155607.890877247 0.137606977891764 -0.0208837069134392 0.0663623774536597 0.000375552888305776 0.000176433544608581 0.00228696296008471 0.999997298812877
1662155607.900470972 0.137600825887662 -0.0208927076559578 0.0663438533514357 0.000337237182118253 0.000190893653540189 0.00228067576394132 0.999997324171497
1662155607.910910845 0.137517022496621 -0.0209399359795593 0.0662952655490762 0.000133011419685999 0.000612520396852922 0.00222119591643441 0.999997336704866
1662155607.920631170 0.137557921766078 -0.0209100898050663 0.0663194003296157 0.000281417573598838 0.000325860339307082 0.00225670797996128 0.999997360941358
1662155607.931511641 0.137586591771261 -0.0208939277899908 0.0663488251290881 0.00036739020803765 0.000165452451772767 0.00225820477685387 0.999997369077792
1662155607.940696955 0.137594145395446 -0.0208886662732717 0.066365318628088 0.000416475519103295 0.000185516527846582 0.0022943116596184 0.999997264129841
1662155607.950545549 0.137532898847478 -0.0209428832616765 0.0663199790822235 0.00018238516650839 0.000564587558550389 0.00219840220330095 0.999997407499485
1662155607.960710049 0.137487628036478 -0.0209391336598615 0.0662867918434283 0.000175467678242654 0.000862702059528475 0.00224189531784947 0.99999709942731
1662155607.970577955 0.137550882637944 -0.0209019671956138 0.0663349409970385 0.000267050700867899 0.0004436769443006 0.00224880298837898 0.99999733735706
1662155607.980400324 0.137580555043063 -0.0208862216611612 0.0663554633870854 0.000321055265186405 0.000249344851054605 0.00226607846769895 0.999997349816708
1662155607.990707636 0.137596234224781 -0.0208777095426597 0.0663526000450303 0.000386974317031677 0.00021307543431264 0.00233525667838796 0.999997175709703
1662155608.780344 0.1376074692935 -0.020892752786155 0.0663439969289441 0.000357725031715529 0.000118133604185893 0.00229953740925268 0.999997285099492
1662155608.10834455 0.137598994268654 -0.0208875822792689 0.0663442689579262 0.000388138799047832 0.000169446825961378 0.00227700707564802 0.999997317934514
1662155608.20480871 0.137607706514818 -0.0208993963023099 0.066353062222153 0.000290701643903872 0.000127269815931582 0.00221401600597594 0.999997498711608
1662155608.30502081 0.137598933971249 -0.0208927182253321 0.0663565473659604 0.00031505760401275 0.000138057992518033 0.00225745425167847 0.9999973927868
1662155608.40698051 0.137587325417744 -0.0208765447251044 0.0663526614870887 0.000418428456813427 0.000299828346979322 0.00232813315752052 0.999997157404954
1662155608.50502300 0.137509222059766 -0.0209345129542958 0.0663141617045417 0.000130558258398714 0.000765786491660268 0.00223617872604229 0.999997198011922
1662155608.60671329 0.137552156012682 -0.0208926448135022 0.0663220422899593 0.000515638433060079 0.000407655724587499 0.00235036681815796 0.999997021851083
1662155608.70564032 0.13756165121755 -0.0208745607566088 0.0663238122022189 0.000671844001060188 0.000288796162787471 0.0024170340019425 0.999996811580141
1662155608.80621958 0.137571713394525 -0.020880723896107 0.0663234276781942 0.000663252558821636 0.000226962212914176 0.00240091559693913 0.999996872090054
1662155608.90688467 0.137581197996103 -0.0208845936406414 0.0663242771193934 0.000635742762772553 0.0001574192404099 0.00237990508874009 0.999996953547104
1662155608.100744247 0.137581161247637 -0.0208838781272582 0.0663245748907178 0.000615446511508789 0.000130001125894123 0.00236320928690933 0.999997009779811
1662155608.110780001 0.137573296960878 -0.0208777064724248 0.0663247162294078 0.000652611958501054 0.000205288471318847 0.0023773010800948 0.999996940192943
1662155608.120517254 0.1375703032152 -0.0208758934132177 0.0663217509892026 0.00066476420829366 0.000255456488223844 0.00237507170887581 0.999996925928428
1662155608.133559465 0.137566458137502 -0.020881121661886 0.0663269928156388 0.000647757934368903 0.000304917298671408 0.00236033787078751 0.99999695811619
1662155608.140470505 0.137570021078307 -0.020879652449169 0.0663333528580376 0.00065332300602521 0.000291912100248179 0.00237784708350275 0.999996916895758
1662155608.151122570 0.137564875912505 -0.0208687357118666 0.0663393221662466 0.000711763344384376 0.000299939871137744 0.00243281874769337 0.999996742406371
1662155608.160657883 0.137567252237767 -0.0208739896605465 0.0663323949837714 0.000710292133075423 0.000247145618957204 0.00242571077002716 0.999996775161194
1662155608.170779467 0.137562271334496 -0.0208773285231116 0.0663221877523542 0.000691715341373656 0.000250349002268314 0.0024075968229279 0.999996831162079
1662155608.181035042 0.137561774995281 -0.0208790378138896 0.0663260234849955 0.000677792801107627 0.000275016850741415 0.00239089842347024 0.999996874279504
1662155608.190917015 0.137558083052806 -0.0208758676364406 0.0663264860465972 0.000689620309190292 0.00027409173817427 0.00241140482230028 0.9999968172078
1662155608.201097012 0.137498393322265 -0.0209287981849966 0.0662824433882012 0.00045135745727922 0.000643254933088575 0.00230144359492777 0.999997042924785
1662155608.210695982 0.137537157580035 -0.0208915748796992 0.0663089902906788 0.000616368908532616 0.000439480480559089 0.002363108566811 0.999996921328049
1662155608.221285820 0.137559979342249 -0.0208854295624969 0.0663262562218982 0.000641878133471273 0.000324754337264539 0.00239450657887348 0.999996874428478
1662155608.230611324 0.137575046952942 -0.0208830062785099 0.0663278591168608 0.000670210694306125 0.000301584539684505 0.00239504652773259 0.999996861804036
1662155608.240757227 0.137571933046673 -0.0208869898935539 0.0663255061504384 0.000644465885950596 0.000278972328603721 0.00239622493589725 0.999996882467949
1662155608.250531673 0.137568185650618 -0.0208930405629207 0.0663113167256086 0.000626564951055071 0.000264289631025701 0.00237885666204627 0.999996939300183
1662155608.260537386 0.137504610556471 -0.0209345937737942 0.0662761948616065 0.000427952843140288 0.000603478640566236 0.00230145997389238 0.999997077972372
1662155608.270684481 0.137534322587662 -0.0208895575713675 0.0663098179510803 0.000619275921363429 0.000443361239805962 0.00237916600558338 0.999996879744463
1662155608.280881166 0.137553275309559 -0.02087779629059 0.0663228513888229 0.000643252756881221 0.000346444440052453 0.0023821242824648 0.999996895838903
1662155608.290931225 0.137565879551976 -0.0208743251906895 0.0663295806462131 0.000687406054489834 0.000269582973329629 0.00241254425624596 0.999996817209708
1662155608.300914764 0.137508581830109 -0.0209487564043451 0.0662830739116954 0.000383062924582134 0.000625985648340296 0.00228676006762058 0.999997116063119
1662155608.311407566 0.137550425677888 -0.0209032299719748 0.0663111144994607 0.000584350371501396 0.000402894031432943 0.00239530035757841 0.99999687936945
1662155608.320912361 0.137565236624227 -0.0208809696196627 0.0663200997347782 0.00066365799352196 0.00030793329893747 0.00242673558039491 0.999996787840327
1662155608.330581665 0.137569886533168 -0.0208642737660849 0.0663233067190937 0.000725617008981675 0.000226753732582633 0.00244905760028233 0.99999671208508
1662155608.341837406 0.137511237526008 -0.0209235412074378 0.0662781384540419 0.000442545691598568 0.000542554489143035 0.00229384025423879 0.999997124038976
1662155608.351056099 0.137543338634836 -0.0208927509132837 0.0663082480166559 0.000565785419853098 0.000326515096876626 0.00234397275748871 0.999997039529548
1662155608.360862732 0.137560229074822 -0.0208718153265537 0.066347514541166 0.000671817135362412 0.00030217325649139 0.00240187864160283 0.999996844161745
1662155608.370559216 0.137576851690508 -0.0208672339380811 0.0663738639964403 0.000549047301898625 0.000376087290722823 0.00235191722390477 0.999997012791629
1662155608.380588531 0.13758647314664 -0.0208743147633177 0.066366377936285 0.000461691646903719 0.000338100797675045 0.00234351661038643 0.999997090225751
1662155608.391242981 0.137516523935374 -0.0209233883035864 0.0663023542561131 0.000270891133128811 0.000607550301211754 0.0023102271167794 0.999997110172171
1662155608.400902271 0.13757019350972 -0.0209122147650967 0.0663128699287149 0.000305938529039487 0.000275131219941491 0.002282611018097 0.999997310192766
1662155608.410602570 0.137589155802698 -0.0208849475358718 0.0663463201908949 0.000361851524394115 0.000175625070378136 0.00230733840955436 0.999997257201324
1662155608.420895576 0.137583888607686 -0.0208793219945092 0.0663724366549184 0.000378672162287061 0.000182663133014094 0.00230249728802116 0.999997260870854
1662155608.430450916 0.13752197617321 -0.0209263910466665 0.0663282507711008 0.000168517587560705 0.00060444964502445 0.00221339715714604 0.999997353554935
1662155608.441148758 0.137566953832571 -0.0208858922220065 0.0663527247189362 0.000405077932111621 0.000416009089949969 0.00230433531412089 0.999997176440246
1662155608.450472832 0.13758487557213 -0.0208721303734243 0.0663662323499814 0.000461430360406188 0.000307919840043881 0.00234840408097883 0.999997088629295
1662155608.460807800 0.137599328968415 -0.0208775263502501 0.066364597358956 0.000475625821190255 0.000250615423628811 0.00236379345885206 0.999997061722619
1662155608.470548630 0.137612763866686 -0.0208987322242386 0.0663451961980528 0.000377304067401032 0.000126428628919857 0.00234269664040791 0.999997176711661
1662155608.480726480 0.137604636115473 -0.0208937503325831 0.0663279289263619 0.000365811354797533 6.90242647870991E-05 0.00234036221052796 0.999997192057971
1662155608.490619183 0.137595879964415 -0.0208828850595914 0.0663315651714303 0.000381927278556261 0.000100535704252575 0.00232086869076771 0.999997228793183
1662155608.500814915 0.13752831972256 -0.0208364659152276 0.0663712590830168 0.00062678002413417 0.00040647453798324 0.00250929401009349 0.999996572679237
1662155608.510324717 0.137491980965994 -0.0209062160003751 0.0663421417443231 0.000274797879881482 0.000774822462880438 0.00233653915718445 0.999996932356516
1662155608.521389484 0.137497181927808 -0.0209441447381809 0.0663318095492042 0.000106078245964298 0.000863351431852764 0.00225623791253962 0.999997076377522
1662155608.530781269 0.137577279931063 -0.0209191952814619 0.0663476275893616 0.00021054252879093 0.000444644941077183 0.00227820843797003 0.999997283861527
1662155608.543414116 0.137611876669641 -0.0209012843234162 0.0663509719648058 0.000325725392311581 0.00019764118340576 0.00232133070873176 0.999997233129208
1662155608.550778389 0.137623371149902 -0.0209055045588942 0.0663459785162816 0.000291299982717669 7.72534527406715E-05 0.00230163413093879 0.999997305825346
1662155608.560564518 0.137540145993747 -0.020958045166733 0.0662904654117814 6.20115432542836E-05 0.000519588457863591 0.00220570364113644 0.999997430524324
1662155608.570456982 0.137574394756966 -0.0209081641055145 0.0663207771289974 0.000255884283232278 0.00026804730938196 0.00227342894356633 0.999997347094537
1662155608.580906868 0.137591794084439 -0.0208874778113507 0.0663364086159196 0.000344400018530752 0.000187148191316094 0.00227522482514359 0.999997334855237
1662155608.590605021 0.137607314207897 -0.0208864839778681 0.0663554121702419 0.000349482784289633 0.000169441833131575 0.00227041975818295 0.999997347169866
1662155608.600714445 0.137610528166209 -0.0208916714091942 0.0663772474427753 0.000329921582734631 0.000203779547276501 0.00231012415027256 0.999997256472964
1662155608.610388041 0.13761115609795 -0.0209042134193384 0.0663817839896714 0.000273135411084286 0.000261500540711879 0.00231170730207452 0.999997256508868
1662155608.620426178 0.137609529020473 -0.0209080151060499 0.0663691460076118 0.000273081109167896 0.000247369311937623 0.00231113517817858 0.999997261441609
1662155608.631180048 0.137534428630954 -0.0209689858022067 0.0662931403354031 6.11665918501086E-06 0.000534687810642659 0.00219221930528342 0.999997454120483
1662155608.640541077 0.137562535711667 -0.020917191480666 0.066299186091308 0.000238247117067139 0.000316700470436976 0.00227870652284702 0.999997325214975
1662155608.650447845 0.13758701793632 -0.0208995620331208 0.0663100511824124 0.000339215654838071 0.000216579208285139 0.00228584182030684 0.999997306473751
1662155608.661401987 0.137596572713687 -0.0208892549332648 0.0663440912500473 0.000376920614127155 0.000189520350286493 0.00228989499463189 0.999997289193926
1662155608.671358585 0.13759068590177 -0.020880626256202 0.0663678905006897 0.000412138519007726 0.000286550763669343 0.00230501410751474 0.999997217467061
1662155608.680589676 0.137596089793076 -0.0208832999077848 0.0663714797526546 0.000408056478011548 0.000276159932629772 0.00233491195669875 0.999997152702525
1662155608.690717459 0.137536827901118 -0.0209504076423223 0.0663229811736882 0.000112093773783025 0.000623111481618759 0.00222619794117444 0.99999732160201
1662155608.700673819 0.137578738403493 -0.0209156266792077 0.0663354270433334 0.000253413077945234 0.000392485445802394 0.00229249641456414 0.999997263095542
1662155608.710668087 0.137537013842525 -0.0209655257050344 0.0662908966519942 3.68824542042798E-05 0.000567437285973974 0.00219404406678472 0.999997431410023
1662155608.720829010 0.137518208909484 -0.0209684964371976 0.0662695240462631 4.34528655878692E-05 0.000601700378639194 0.00218100975757464 0.999997439629893
1662155608.730776548 0.137570611995448 -0.0209102541042096 0.0663033871920833 0.000316279336885637 0.000274475689397437 0.00226344500151981 0.999997350720792
1662155608.741263151 0.13758262113461 -0.0208740224142948 0.0663289820740863 0.000454453659761007 0.000264147603111024 0.00233682296034949 0.99999713147477
1662155608.750480890 0.13758703015377 -0.0208697067219446 0.0663551603625573 0.000462732080127229 0.000283253583310228 0.00233273781271887 0.999997131986951
1662155608.760969162 0.137576439812475 -0.0208642358409472 0.0663678866131914 0.000503172735614238 0.000387165001870077 0.00237739708720963 0.999996972447892
1662155608.771151066 0.137579032262975 -0.0208849175930331 0.0663568876229072 0.000413215881340534 0.000369168383195148 0.00233718381317828 0.999997115266121
1662155608.780433893 0.137592930818982 -0.0208891642849939 0.0663525918482456 0.000382472399198382 0.000268436538928486 0.00231648895406575 0.999997207764609
1662155608.790843010 0.137597025334304 -0.0208871617420991 0.0663442209721385 0.00041349871584785 0.000215917427923078 0.00234987215282424 0.999997130246254
1662155608.800996065 0.137602187111054 -0.0208945418826898 0.0663406418495044 0.000345965559902825 0.000121697197556763 0.00228586410781113 0.999997320158562
1662155608.810603142 0.137586967575652 -0.0208883329214938 0.0663117715196818 0.00054617384452683 0.000123486205226765 0.00233611854852934 0.999997114494245
1662155608.820747375 0.137561921479722 -0.0208723106928244 0.0663058742504597 0.000669478914028606 0.000253491690365234 0.0024014798932019 0.999996860212906
1662155608.830467939 0.137561293636338 -0.020868406125822 0.0663180753355589 0.000707191601876954 0.000293319251460031 0.00244000175503805 0.999996730113
1662155608.840636492 0.137495474724395 -0.0209265831093799 0.066288617527327 0.000429505040481018 0.000722782902137149 0.00232531764268257 0.999996943000106
1662155608.850538492 0.137554900720948 -0.0208945011659373 0.0663239925108923 0.000574909299923864 0.000360181343557593 0.00239363438294688 0.99999690512748
1662155608.860806942 0.137565570388594 -0.0208783743369173 0.0663250861984122 0.000684421212467978 0.000241061641207609 0.00244088010743093 0.99999675777604
1662155608.871082783 0.137579632824964 -0.0208819364428693 0.0663110099698814 0.000670505187244577 0.000126008147788938 0.0024271929113484 0.999996821635305
1662155608.881547689 0.137580328095756 -0.020884978254301 0.0663076864741167 0.000635415552152687 0.00010959430072601 0.00238820129180405 0.999996940361397
1662155608.890763760 0.137567838665761 -0.0208893232782863 0.066301164044795 0.000581446622469835 0.000216034649488892 0.00236254436318781 0.999997016812744
1662155608.900722980 0.137564818980591 -0.0208668510611652 0.066314433820474 0.000681261023465994 0.00028174198244269 0.00240917803895675 0.999996826178689
1662155608.910528183 0.137557779408484 -0.0208692421365937 0.0663166465918428 0.000658258380015879 0.000329729293953954 0.0023902176860721 0.999996872412765
1662155608.920900106 0.13756503506739 -0.0208686303816286 0.0663307663759137 0.000680236441519403 0.000275189646695768 0.00242865463650209 0.999996781588371
1662155608.930532217 0.13758043507615 -0.0208868583860366 0.0663441411546501 0.000607185275934248 0.000213558153839109 0.00239068813755053 0.999996935160596
1662155608.940669298 0.137498133288747 -0.0209344333230952 0.0662989981465094 0.000416952938130971 0.000660885940460712 0.00232679650580319 0.999996987695185
1662155608.952334642 0.137545454381283 -0.0208943116443726 0.0663045634022812 0.000580272066184479 0.000332963517215437 0.00238901489545076 0.999996922509693
1662155608.961542606 0.137562256344437 -0.0208758430536675 0.0662918726205221 0.00064677392313041 0.000201545219152888 0.00237778812050837 0.999996943589366
1662155608.970616341 0.137568432737863 -0.0208683422295545 0.0662994052506882 0.00069445114035986 0.000171714625253636 0.00241236725471445 0.999996834363655
1662155608.980844975 0.137563437716119 -0.0208631871419136 0.0663216862755624 0.000701863501733821 0.000296693707761531 0.00241098569694964 0.99999680324981
1662155608.990658522 0.137560137559841 -0.0208731482180318 0.066342160234749 0.000657510170318516 0.000322147524048769 0.00240057540727212 0.999996850565273
1662155609.1585960 0.137499575632354 -0.0209433960410275 0.0663032625091479 0.000332365823648905 0.000703637727760496 0.00229480652658762 0.999997064141348
1662155609.10823727 0.137549073298987 -0.0209112242447316 0.0663240157065422 0.000463453744896093 0.000361793136649923 0.00231419770159119 0.999997149399313
1662155609.20849228 0.137564952580845 -0.0208825930943008 0.0663249550757239 0.000599112895924769 0.000233308558820585 0.00236978218571481 0.99999698537778
1662155609.30754566 0.137504269853273 -0.0209072506836718 0.066284258289531 0.000494671141154712 0.000578993395256022 0.00236878458196164 0.999996904459267
1662155609.41181087 0.137547908508953 -0.0208899013236109 0.066296897063227 0.00057992159337899 0.000329851314007191 0.00238422995436278 0.999996935164294
1662155609.50797224 0.137573782283715 -0.020888106152984 0.0663054309078627 0.000577465582781379 0.000193633271120151 0.0023537885235943 0.999997044355954
1662155609.60854435 0.137585700243331 -0.0208778985087838 0.0663315615835224 0.000463805111977831 0.000242797711473512 0.00231584569431224 0.999997181393133
1662155609.70734262 0.137566794456754 -0.020862474116417 0.0663480936132427 0.000622432639528977 0.000241577911772181 0.00238495292933085 0.999996933104621
1662155609.80542326 0.137574258767133 -0.0208655427525409 0.0663544219510085 0.000636589124069813 0.000209951475940944 0.00239027316603656 0.999996918630381
1662155609.91076851 0.137574260862646 -0.0208703863750328 0.0663572662444241 0.000539544946103851 0.000340603542098028 0.00237404185524707 0.999996978399009
1662155609.101622343 0.137573315473647 -0.0208756570576016 0.066324027226688 0.000593649063259431 0.000240350816480098 0.00239385208247358 0.999996929638228
1662155609.110481262 0.137584284857473 -0.0208912716826525 0.0663323272782127 0.000337070248385791 0.000224694299580075 0.00228867248685086 0.999997298934236
1662155609.121041536 0.137578822489164 -0.0208827651805913 0.0663315697515972 0.000392578429997073 0.000271160837766572 0.00232004107242968 0.999997194878466
1662155609.147788286 0.137503961654992 -0.0209614702643276 0.0663034297199341 -5.48478323136496E-05 0.000695367753810755 0.00211695821320183 0.999997515969278
1662155609.149699450 0.137545549333762 -0.0209078015918821 0.0663325067235175 0.000239732040311346 0.000446249033925801 0.00225032527458543 0.999997339710416
1662155609.151992083 0.13756111585938 -0.020890294964115 0.0663589871686 0.000297782078159906 0.000339992459283638 0.00227233040653777 0.999997316119842
1662155609.160965919 0.137584063937983 -0.0208784080123634 0.0663792719311594 0.000372174616439289 0.00020779288624883 0.00228443836720666 0.999997299821814
1662155609.170739889 0.137586401445766 -0.0208806318449407 0.0663664905551859 0.000404066477065639 0.000223214671048213 0.00232441198850717 0.999997192003958
1662155609.180625916 0.137522329474162 -0.0209490525709169 0.0663085051080034 0.000105587586828399 0.000569437605384933 0.00221749411451982 0.999997373653215
1662155609.190675259 0.137562868333704 -0.0209111414309969 0.0663105507569116 0.000294049915333252 0.000345280894209309 0.00229157308029545 0.999997271501263
1662155609.200667381 0.137513181150083 -0.0209414676978533 0.0662760647511849 0.000159113234266833 0.00065313651690466 0.00223534995148668 0.999997275650121
1662155609.210729361 0.13748570942663 -0.0209526624590316 0.0662686492638343 0.000107511316152656 0.000847791578494407 0.0022017661093546 0.999997210955189
1662155609.221381187 0.13755988656483 -0.0209010821882683 0.0663308825938566 0.000314170751747825 0.000399750380713257 0.00226673055602428 0.999997301711539
1662155609.230449677 0.137582760993596 -0.0208719481890217 0.0663700391699865 0.000438184049605034 0.000257538609061515 0.00233711451771165 0.999997139778777
1662155609.240608692 0.13758758052058 -0.0208763085120908 0.0663785130175501 0.000417123433379503 0.000225733562414303 0.00232512214914069 0.999997184426432
1662155609.250781536 0.137588010025122 -0.0208862629764909 0.0663621378668631 0.000374561747982659 0.000256625219269528 0.00231832261911323 0.999997209610421
1662155609.260643244 0.137517913652796 -0.0209220150555016 0.066304959361045 0.000264334421106795 0.000693978328455716 0.00230760561863294 0.999997061735235
1662155609.270611286 0.13756944823443 -0.0209122986918106 0.0662987591813162 0.000311116161434739 0.0003851477655303 0.00230779806150135 0.999997214464841
1662155609.280394077 0.137524861581463 -0.0209545599295661 0.0662653688988843 9.27222951028075E-05 0.000603640212658338 0.00220720384508193 0.99999737763339
1662155609.291108131 0.137582201198638 -0.0209163316284351 0.0663128746153509 0.000235592967418939 0.000252847846932864 0.00222078809495851 0.999997474329589
1662155609.300582647 0.137511698986827 -0.0209265334191848 0.0663160122568095 0.00020182183318795 0.000632507096718434 0.00221994631606155 0.999997315517634
1662155609.312364578 0.137564671935575 -0.0208923178115787 0.0663671997410277 0.000362563616314433 0.000372063880352755 0.00232874304612795 0.999997153532608
1662155609.320804596 0.137584209059602 -0.0208835400136129 0.0663743497457479 0.000425209924050059 0.000351046683903216 0.0023661068508958 0.999997048746903
1662155609.331043005 0.137587674536461 -0.0208757081457192 0.0663619005497317 0.000456162895503269 0.00035709785200286 0.00237681220343246 0.999997007576366
1662155609.340575218 0.137592585059237 -0.0208834868824998 0.0663400274106331 0.000400791059059672 0.000250588269689915 0.00235209384255812 0.99999712210986
1662155609.351079702 0.137593385188553 -0.0208981488385383 0.066311876266444 0.000356476767785266 0.000196888182010592 0.002276367646744 0.999997326151973
1662155609.362915277 0.137583289724527 -0.0208940549257946 0.0663088859824585 0.000383346377319606 0.000197342481851034 0.00231243927388902 0.999997233359925
1662155609.370542288 0.137520427870944 -0.0209435820933483 0.0662847774482955 0.000148999583436592 0.000550090227398078 0.00222435521256061 0.999997363719102
