#header.st.mp.secs .header.stamp.nsecs .pose.pose.position.x .pose.pose.position.y .pose.pose.position.z .pose.pose.orientation.x .pose.pose.orientation.y .pose.pose.orientation.z .pose.pose.orientation.w
1662155469.592876434 0.0387178686218452 0.0294164109932104 0.0658342525856338 0.00114257397351079 -0.000944918087703403 -0.00309256317233136 0.999994118837077
1662155469.602277756 0.0387216724435191 0.0294297302014107 0.065837785458758 0.0012094012304201 -0.00088670495541912 -0.00303537295821289 0.999994268791169
1662155469.612046242 0.0387199942619898 0.0294089577779078 0.0658327530087823 0.00105342952225973 -0.000929523361562781 -0.00309796006777158 0.999994214441851
1662155469.622208834 0.0387141759003344 0.0294241751694785 0.0658307326549721 0.00107873983336096 -0.000969285207807896 -0.00308599770287437 0.999994186696068
1662155469.632037878 0.0387145388093562 0.0294233404894962 0.0658181926240809 0.00109854513139096 -0.001104821473135 -0.00308763937807476 0.999994019508303
1662155469.642429352 0.0387332076852827 0.0294202950726116 0.0658127821414143 0.00108797894463103 -0.00124602435928599 -0.00314181630985216 0.999993696338423
1662155469.652260303 0.0387367843200531 0.0294199309960082 0.0658131966600893 0.00115333137462238 -0.0011830274237531 -0.00311279592673314 0.999993790368505
1662155469.662085295 0.0387329961236051 0.0294066132857208 0.0658186019560767 0.00109635535857825 -0.00105930054964401 -0.00314233153314169 0.999993900801902
1662155469.672485352 0.0387210989565427 0.0294045833820338 0.065823999361501 0.0010846044115828 -0.000847212157957758 -0.00309077134049354 0.999994276482894
1662155469.682083607 0.0386976312887117 0.0294339986780281 0.0658402117385674 0.00121077650768036 -0.000751615111027635 -0.00303053955236225 0.999994392447372
1662155469.692313433 0.0387015784243736 0.029418984037842 0.0658292042323048 0.00106615138446545 -0.000829996760168752 -0.00309003065643432 0.999994313052999
1662155469.701938152 0.0387139114911029 0.0294203266115774 0.0658360192095411 0.00103099055904992 -0.00105651218054876 -0.00308942736458006 0.999994138122936
1662155469.712148905 0.0387446028072419 0.029429167262809 0.0658238904442071 0.00111290988563824 -0.00129404876211189 -0.00306506221896941 0.999993846113153
1662155469.722507954 0.0387397653644409 0.0294216336697804 0.0658116362977637 0.00109909844963016 -0.00132577632057369 -0.00309755064008388 0.999993719720765
1662155469.732034445 0.0387442344938836 0.0294166304871534 0.065807054841038 0.00110628922997647 -0.0012858006270471 -0.00310943560733924 0.999993727106468
1662155469.741786718 0.0387256664858123 0.0294105964718011 0.0658149291488724 0.00110624521301754 -0.00101895744655749 -0.00312661886301565 0.999993981083351
1662155469.752446413 0.0386966017868171 0.0294310030568006 0.0658325240530942 0.00123847852075052 -0.000738369982230315 -0.00299994033830767 0.9999944606546
1662155469.762219191 0.0387129890715599 0.0294236386188369 0.0658411766499402 0.00114131770994223 -0.000809750855216995 -0.00304714818486562 0.999994378277484
1662155469.772388697 0.0387175572119379 0.0294277428353772 0.0658410482154531 0.00110312910555303 -0.000936012292167549 -0.00305402550142848 0.999994289941995
1662155469.782434464 0.0387315479408824 0.0294346720026682 0.065833389080243 0.00113349610627979 -0.0011513111998768 -0.00306396076979562 0.999994000889352
1662155469.793081760 0.0387208684557952 0.0294201953251527 0.0658158818158581 0.00107813412633338 -0.00112782919753624 -0.00309724619339392 0.999993986329577
1662155469.801940680 0.038736436799338 0.0294249650519059 0.0658224340708325 0.00113568490625265 -0.0011962435724586 -0.00311630463783138 0.999993783914534
1662155469.812299490 0.0387233088557996 0.0294280551070729 0.0658162242466803 0.00118706285195622 -0.0010795515673986 -0.00312206629228234 0.999993839057751
1662155469.821879148 0.0387303918348668 0.029408482711919 0.0658098653734834 0.00108933097121749 -0.00105858929152265 -0.00314199366958228 0.999993910293318
1662155469.832187891 0.0387289686389475 0.0294111319113403 0.0658234036951155 0.00110723845815127 -0.000953313974730114 -0.00306689301336902 0.999994229675302
1662155469.842168570 0.0387271582987669 0.0294142360159618 0.0658350838885332 0.00107889225920053 -0.000901287321903949 -0.0030529913961317 0.99999435144274
1662155469.852349997 0.0387136776178096 0.0294313636279837 0.0658493516862829 0.00114626529401248 -0.000909324586809619 -0.00303511671225863 0.999994323620094
1662155469.862385750 0.0387289703306733 0.0294246752118825 0.065833125236502 0.00113770147364335 -0.00105531107513908 -0.003076320461673 0.999994064086134
1662155469.871988535 0.0387400743280222 0.0294321341303334 0.0658354957106182 0.0011735636495369 -0.0012427792752059 -0.00311214461926265 0.99999369638268
1662155469.883274078 0.0387250712225866 0.0294297961192188 0.0658081100424741 0.00118599909553926 -0.00122545155267342 -0.00306359796871674 0.999993853002766
1662155469.892500877 0.0387368670316637 0.0294030444917242 0.0657944138625493 0.00105432733818182 -0.0012100628412516 -0.00315374426500715 0.999993739000444
1662155469.901942730 0.0387460336886779 0.029390262339719 0.0657933923949439 0.000991104836831951 -0.00111072576843036 -0.00318793461218455 0.999993810517631
1662155469.912075996 0.0387223905194806 0.0294050677399475 0.0658074036028627 0.00108596395900291 -0.000920996346796924 -0.00306102922446812 0.999994301258407
1662155469.921854973 0.0387376147290595 0.0294038456069302 0.0658313443726444 0.00107060469850258 -0.000968225969329894 -0.00307234256035093 0.999994238511621
1662155469.931969166 0.0387306507067122 0.0294148073396968 0.0658451297218572 0.00110472415276912 -0.00104077465278234 -0.00308094548929545 0.999994102056984
1662155469.942352533 0.0387092153415626 0.0294286231039157 0.0658500348622917 0.00115213745065729 -0.00097345043434904 -0.00306658462140913 0.9999941604997
1662155469.952548265 0.0387232906203663 0.0294335655089841 0.0658279305912122 0.0011663215960259 -0.00114311823807922 -0.00309504064127251 0.999993876830879
1662155469.961971760 0.0387282287707691 0.029419416887553 0.0658004672096691 0.00113307637896769 -0.0011792023117827 -0.00311258045284459 0.999993818712868
1662155469.972044468 0.038732564436421 0.0294214137002249 0.0657967312257125 0.00114009404957555 -0.00112927424873048 -0.00310605265675068 0.999993888662984
1662155469.981935024 0.0387320667221148 0.0294112533948277 0.0658110866497736 0.00109043394679354 -0.00102751432662123 -0.00310224401047167 0.999994065608096
1662155469.993217707 0.0387318774435784 0.0294060274203921 0.0658353654765453 0.00109088766605057 -0.000943845359782572 -0.00311724554282197 0.999994100933329
1662155470.2741814 0.038734561052139 0.0294148100834628 0.0658489864893646 0.00111603814097583 -0.000972204833630298 -0.00310653226673084 0.999994079350022
1662155470.12569666 0.0387278003737869 0.029413226834187 0.0658507374323114 0.001092164033107 -0.00101442641213739 -0.00311605622075241 0.999994034138005
1662155470.22007465 0.0387175649562086 0.0294251827461968 0.0658415328948653 0.00113476798967811 -0.00104156812844462 -0.00311457298201293 0.999993963418669
1662155470.32050610 0.0387294060053618 0.029435295048696 0.0658208600976264 0.00117036901149672 -0.00116182782319973 -0.00309042213550491 0.999993864823532
1662155470.41948318 0.0387231842730981 0.0294339471017817 0.0658155119065619 0.00116200419835812 -0.00111470817478121 -0.00308320459306932 0.999993950492982
1662155470.51951170 0.0387376868225442 0.0294290734959449 0.0658163018916716 0.00113564000670071 -0.00115543505112017 -0.003105139902457 0.99999386668069
1662155470.62352896 0.0387291776619074 0.0294155420492144 0.0658050977682454 0.00111847532341707 -0.00100937981000029 -0.00305992737974692 0.999994183488572
1662155470.71818829 0.038728498930673 0.0293990843182036 0.0658238518052075 0.0010667254338613 -0.000942553500379647 -0.00310506058140538 0.999994166127847
1662155470.83150864 0.0387294765660429 0.0294080897741659 0.0658482951721353 0.00107921487294152 -0.0009620981014012 -0.00311078816501343 0.999994116313035
1662155470.92071295 0.0387237531064727 0.0294181165074024 0.0658558822377931 0.00111314130698658 -0.00101169150729018 -0.00310325789576701 0.999994053576496
1662155470.101949453 0.0387367325044426 0.02942956740139 0.0658407098248531 0.00112854822280923 -0.00115184081927389 -0.00312061196028946 0.999993830692882
1662155470.112143755 0.0387362824437925 0.0294283910896099 0.0658098263464962 0.00111154621155369 -0.00122900792432425 -0.00311154515174469 0.999993786126947
1662155470.122554302 0.0387273294726364 0.0294308976904095 0.0658034536581905 0.00111575174862766 -0.00119038420619194 -0.00307871826739892 0.999993929770827
1662155470.132317781 0.0387330256913254 0.0294185117923643 0.0658017590353727 0.00110050988871585 -0.00109866146362664 -0.00307889252827263 0.999994051103789
1662155470.142112732 0.0387157963659049 0.0294283746130765 0.0658203120443293 0.00119534037847017 -0.000961962667065478 -0.00298148451400764 0.999994378254445
1662155470.152049065 0.0387298866073721 0.0294138387265492 0.0658381227244671 0.00112109503073268 -0.00101090583311741 -0.00305782555793515 0.999994185442786
1662155470.162123442 0.0387262073487902 0.0294153967904069 0.0658599206399756 0.00110873632291912 -0.00096649460230362 -0.00308625661459819 0.99999415578955
1662155470.171814442 0.0387252600633066 0.029419593137064 0.0658511158752332 0.001111195521778 -0.000988710668048075 -0.0030924180965174 0.999994112306287
1662155470.182321548 0.0387219333681918 0.0294332847837798 0.0658360513372107 0.00111605566662415 -0.00104928557469126 -0.00311627147857386 0.999993971118226
1662155470.191975355 0.0387325136068562 0.0294247794577222 0.0658090558380965 0.0010669817974203 -0.00123172173682955 -0.00311388854011615 0.99999382403631
1662155470.201934576 0.0387307785836263 0.0294265146931197 0.0657955419011747 0.00109975801163804 -0.00125267576666704 -0.00307464278474923 0.999993883935638
1662155470.211955786 0.0387348592240388 0.0294239427746898 0.0658054082859571 0.00112164617889243 -0.00120141170698141 -0.00305159152236281 0.999993993137027
1662155470.221922874 0.0387321607558047 0.0294069547188006 0.0658379263845353 0.00108709468299233 -0.0010710279049862 -0.00308040334454213 0.999994091102946
1662155470.232716560 0.0387308193104862 0.0293989586607093 0.0658635163731004 0.00107294643378329 -0.000940380243167325 -0.00310520411416117 0.99999416107273
1662155470.242010355 0.0387216047708366 0.0294248060233128 0.0658775322456396 0.00115536172709987 -0.000889682672423533 -0.00308704519932824 0.999994171861593
1662155470.252111673 0.0387204676523221 0.0294426672340462 0.0658574660947446 0.00120672197114233 -0.000966724381391773 -0.0030334454279624 0.999994203721244
1662155470.261997938 0.0387030718015154 0.029442870852226 0.0658226298609941 0.00119444085572989 -0.00102066888449746 -0.0030531484703929 0.999994104898465
1662155470.272150278 0.0387226395527395 0.0294278027053352 0.0657961253676968 0.00112126202748782 -0.00118615381694382 -0.00308452055644368 0.99999391075382
1662155470.282008171 0.03875091302818 0.0294098589388797 0.0657949686038454 0.00103919890091608 -0.00132777534647572 -0.00311409015182221 0.999993729741339
1662155470.292257309 0.0387396334014938 0.0294056803295419 0.0658028330600182 0.00108859349575712 -0.00120517065002171 -0.00307877743421373 0.999993941810954
1662155470.301783800 0.0387296794512426 0.029400500814896 0.0658350199469539 0.00106628294841646 -0.00106853842061529 -0.00309241498373503 0.999994079101012
1662155470.311959028 0.0387279496552081 0.0294243679078882 0.0658591453640413 0.00117297066441184 -0.000895207465511669 -0.00305586406272472 0.999994242203143
1662155470.321881533 0.0387229001034312 0.0294365956460667 0.065873630299074 0.00117475893276997 -0.000878968390742755 -0.00308516765311183 0.999994164531856
1662155470.332059383 0.0387220862400078 0.0294269969504088 0.0658406494103249 0.00107152343403207 -0.000890146758537405 -0.0031320429429481 0.999994124874979
1662155470.342417717 0.0387330678688868 0.0294185210370722 0.0658106839881169 0.00104488643984878 -0.00115097669569159 -0.00314016215204168 0.999993861405072
1662155470.352057695 0.0387607139238843 0.0294039604246723 0.0657890776350277 0.000994968059028176 -0.00142384563982143 -0.00316295821086689 0.999993489178157
1662155470.362632036 0.0387378530316208 0.0294204211715709 0.0657901022289772 0.0011567167270719 -0.00132307122915445 -0.00303789004879066 0.999993841338126
1662155470.371768713 0.0387446546023586 0.0294013406315351 0.0658065023559431 0.00106739023004004 -0.0012350320595078 -0.00309119919005372 0.999993889912668
1662155470.382200956 0.0387363252904339 0.0294101539140241 0.0658478001304897 0.00105675906865988 -0.00104162235049425 -0.00309825695967986 0.99999409952667
1662155470.391944408 0.038727176365751 0.0294339283803079 0.0658643214874443 0.00117371769713391 -0.000884040224338459 -0.00306985998432982 0.999994208393488
1662155470.405137300 0.0387098131813382 0.0294420313223645 0.0658730569497166 0.00119608112741492 -0.000773555288397933 -0.00303617220928576 0.999994376315018
1662155470.412009001 0.0387141328120488 0.0294316145287332 0.0658588993727499 0.0011572884175958 -0.000890987066410113 -0.00309394648401601 0.999994147143828
1662155470.422169209 0.0387223258376905 0.0294261849466871 0.0658154331314895 0.00114668187379457 -0.00112415524616274 -0.00308743318964769 0.999993944558243
1662155470.432574272 0.0387552962602034 0.029408003218086 0.0657785760555547 0.00107352361110457 -0.00139347121412062 -0.00312405353686019 0.999993573017209
1662155470.441875696 0.0387408569987916 0.0294048813062913 0.065772232277211 0.0010518152343952 -0.00134531391937458 -0.00310487731610989 0.9999937217569
1662155470.452139378 0.0387341075381391 0.0294047464788699 0.0657995302117152 0.00102998022882914 -0.00112532766308304 -0.00312335825418702 0.999993958688145
1662155470.462197304 0.03871469451146 0.0294273519387888 0.0658534898559511 0.00114233947637553 -0.000856445798538176 -0.00307022976149817 0.999994267609329
1662155470.472453117 0.0387060112595538 0.0294230142709452 0.0658734638748006 0.00111241726029962 -0.00069328393176656 -0.00310696537445656 0.999994314310128
1662155470.482142210 0.0387187462617842 0.0294183284309707 0.0658708929361471 0.00106170650219336 -0.00080685372061373 -0.00310355739199512 0.999994294833267
1662155470.492275238 0.0387298835660554 0.0294301067237365 0.0658477505046676 0.0011531041848913 -0.00102866594320327 -0.00309780539283141 0.999994007882076
1662155470.502609968 0.0387214431279757 0.0294289835821461 0.0658152662965756 0.00111588134682766 -0.00114964837596909 -0.00311033206058809 0.999993879457818
1662155470.512436390 0.038722670030975 0.0294136025931108 0.0657760174909079 0.00104843401755009 -0.001274183289959 -0.00313746852098277 0.999993716748024
1662155470.521983624 0.0387368143748293 0.0293996416923051 0.0657685013756668 0.000987875415673642 -0.00134797566903503 -0.00314270367642588 0.999993665219212
1662155470.531932831 0.03873523042282 0.029406449749722 0.0657875630226739 0.0010594548048302 -0.00120298947371667 -0.00310514555040115 0.999993894203432
1662155470.541784525 0.0387250765746095 0.0294262715604966 0.0658467156617011 0.00116236036950456 -0.000979883817315988 -0.00303222784385606 0.999994247154238
1662155470.552188635 0.0387177800036804 0.0294234466721431 0.0658985786908397 0.00113814039043831 -0.000799549026684635 -0.00309952027939534 0.999994229149866
1662155470.562753677 0.0387124716626498 0.0294262732772304 0.0658917047483174 0.00115094621460994 -0.000732988722370645 -0.00310592001547098 0.99999424563964
1662155470.572386265 0.0387076984893241 0.0294482494923108 0.0658558372090051 0.0012555526665497 -0.000871267736148753 -0.00303433942346425 0.99999422861609
1662155470.582164049 0.0387186442270184 0.0294472551003136 0.0658109985321307 0.00120232743266609 -0.00112044119394212 -0.00304620293299153 0.999994009816638
1662155470.592346430 0.0387254982066556 0.0294142241541016 0.0657705942205007 0.00103166650615805 -0.00132448538963538 -0.00310651650321772 0.999993765460105
1662155470.602631092 0.0387441857168785 0.0293923020006789 0.0657622567925383 0.000923528863224414 -0.00138387621740975 -0.00315460560560018 0.999993640202636
1662155470.612609386 0.0387404883772054 0.029399321854371 0.0657917677102112 0.001001073277064 -0.00119852712774071 -0.0031137126831809 0.999993933071364
1662155470.621947765 0.0387137508506718 0.029422567341904 0.0658421393676585 0.00117099422500784 -0.000899186315992053 -0.00307136521314456 0.999994193459849
1662155470.632966042 0.0387187085112668 0.0294267020798279 0.0658807756602473 0.00116754274609923 -0.000841476388954047 -0.00308457793819846 0.999994207054
1662155470.642099380 0.0387143179792991 0.0294243253629782 0.0658771187806259 0.0011279936623242 -0.000791966296493579 -0.00311072276672214 0.999994211895621
1662155470.652471542 0.0387184478033844 0.0294383374555739 0.0658552892497374 0.00116771207864667 -0.000942658620290885 -0.00307382978762026 0.999994149690315
1662155470.662025452 0.0387200133055914 0.0294275310400349 0.0658032914109717 0.0011131893335148 -0.00108216840418019 -0.00309865742106775 0.99999399400418
1662155470.672514677 0.0387284732740528 0.0294278296617102 0.0657736136208453 0.00115915985505278 -0.00125823848353624 -0.00304719329091195 0.999993893880652
1662155470.682322979 0.0387422567321035 0.0294072263474545 0.0657584576140049 0.00104135739447261 -0.00128575717051538 -0.00313733197689473 0.999993709756483
1662155470.692715883 0.0387273596115569 0.0294148028128186 0.0657964022564474 0.00109041166056804 -0.00112960785456962 -0.00308797544971313 0.999993999680657
1662155470.701894283 0.0387362127572817 0.0294270557320287 0.0658526486418918 0.00112258237110831 -0.00103852582663875 -0.00308834228709348 0.999994061690387
1662155470.712089300 0.0387143125109487 0.0294295422062393 0.0658808521513172 0.00113415410394107 -0.000781758812578513 -0.00307908248193148 0.999994310883761
1662155470.738125801 0.038701385986687 0.0294380547060378 0.0658630089626702 0.00122100650188537 -0.000725157566997542 -0.00305645026336657 0.999994320685175
1662155470.740650892 0.0387146096205024 0.0294476249477072 0.0658405181107069 0.00125937765928808 -0.000898267838984057 -0.0030501632043844 0.999994151777108
1662155470.742442608 0.0387160000953283 0.029440485877846 0.0658215615780227 0.00122015085466621 -0.00105322779268586 -0.00303915630157158 0.99999408271913
1662155470.752373219 0.0387284215360365 0.0294226702110798 0.0657867113881934 0.00111578571211834 -0.001193530971009 -0.00310985343798555 0.999993829640389
1662155470.761937618 0.0387216990087489 0.0294117975052372 0.0657841672189091 0.001069629649186 -0.00114196201446258 -0.0030582679025091 0.999994099389491
1662155470.771932840 0.038737189231006 0.0294029556561022 0.0658121816408749 0.00100885639314296 -0.00113344018669365 -0.00312942280883951 0.999993952099809
1662155470.781847239 0.0387291501131541 0.0294082774283592 0.0658340325967026 0.00105679916781034 -0.000977863875069825 -0.00311883146881497 0.999994099907205
1662155470.791904688 0.038714050546401 0.0294340947265304 0.0658729591463819 0.00120261662345296 -0.000890450677496503 -0.00308148599434792 0.999994132610839
1662155470.802499294 0.0387215568110607 0.0294419267954994 0.0658647450378232 0.00122239773363554 -0.000930537596458187 -0.00309971229614558 0.999994015796312
1662155470.812966585 0.0387211073638263 0.029428373295429 0.0658289958058188 0.00113860022816275 -0.00102358152378774 -0.00312803137872826 0.999993935627246
1662155470.821819305 0.0387371821919704 0.0294261600581857 0.0658002217597819 0.00111961601756983 -0.00126787664433076 -0.00311037909905366 0.999993732226277
1662155470.832109213 0.0387431996428837 0.0294044795300793 0.0657729601137351 0.00102133566850397 -0.00134242603342474 -0.00312329572214063 0.999993699875564
1662155470.841701984 0.0387329849623119 0.0294049332795503 0.0657925758794991 0.00102522491655918 -0.00124738514328883 -0.00309841842499628 0.999993896355687
1662155470.852186441 0.0387392995034392 0.0294039319396551 0.0658253498169295 0.0010252977669541 -0.00107819908142847 -0.00310656506893312 0.99999406773535
1662155470.861979961 0.0387151862521833 0.02942816760567 0.0658638907954398 0.00115164896678448 -0.00085320716645024 -0.00311053703391784 0.999994135134171
1662155470.872290611 0.0387146451389586 0.0294142639028002 0.0658561974448752 0.0011062184045432 -0.000825766207686046 -0.00312338791812816 0.99999416940306
1662155470.882261276 0.0387255485588096 0.0294172641825331 0.0658385855671631 0.00108023953380327 -0.000963525820397668 -0.00315716784464679 0.999993968478278
1662155470.892056704 0.0387241789538234 0.0294210802201052 0.0658058276580087 0.00105317961249321 -0.00106870991764043 -0.00314829022697778 0.999993918452334
1662155470.902131319 0.0387290438733267 0.0294332342971958 0.0658056246773799 0.00112919680718715 -0.00120519689768695 -0.0030713598269969 0.99999391956402
1662155470.912107229 0.0387441219065676 0.0294117822966261 0.0658000827716649 0.00106973964616934 -0.00128946361282152 -0.00306840617601188 0.999993888894032
1662155470.921972275 0.038727944446059 0.0294225302454691 0.0658153272218511 0.00115432226555802 -0.00113849338279541 -0.00301130097963522 0.999994151703161
1662155470.932461977 0.0387196644600137 0.0294189489140501 0.0658363426727317 0.00116540454891608 -0.00099834411530897 -0.00307643490357091 0.999994090327908
1662155470.942171097 0.038707913665261 0.0294204798168638 0.0658465413782079 0.00110524600023483 -0.000850550858012774 -0.00315258138651048 0.999994058095501
1662155470.951998711 0.0387135539996469 0.0294554410894717 0.0658469001061721 0.00123935181922 -0.00086532071742558 -0.00308137309496729 0.999994110166737
1662155470.962105274 0.038727344787184 0.029433637550665 0.0658222179597141 0.00112619105714165 -0.00103361760221606 -0.0031299973659984 0.999993933204614
1662155470.971999168 0.0387182286243791 0.0294250143972326 0.0658094622768649 0.00113047673230164 -0.00109549147071032 -0.00307894357940445 0.999994020996336
1662155470.982274771 0.0387332010505653 0.0294187378974823 0.0658073478202212 0.00110892426813885 -0.00119288484697524 -0.00304871533079455 0.999994026306524
1662155470.992307901 0.038726075101605 0.0293896762064274 0.0658048118656409 0.000973032229727977 -0.00118540740451011 -0.00310172927402282 0.999994013629215
1662155471.2599716 0.0387285160216624 0.0294033426143059 0.065818932062974 0.00104398306240743 -0.0011312199477504 -0.00309445810747539 0.999994027367668
1662155471.12116432 0.0387173223343537 0.0294308255778259 0.0658308547042952 0.00115065177673931 -0.000998851890299943 -0.00308780990531749 0.999994071845713
1662155471.21806002 0.038702380750328 0.0294435901073076 0.0658491103743739 0.00125420793215446 -0.000838529533535002 -0.00307042392598444 0.999994148147273
1662155471.32001019 0.0387163937024225 0.0294407157365994 0.0658497488750896 0.00117597013697909 -0.000891828613202376 -0.00312267951477142 0.999994035287111
1662155471.41913748 0.0387040652003462 0.0294468373537511 0.0658375381661052 0.00121507754217209 -0.000900135170100212 -0.00305065970335518 0.999994203393103
1662155471.52788734 0.0387255494233682 0.0294228089695639 0.0658054230293957 0.00111593659873726 -0.00112179496507097 -0.00306541223783192 0.99999404973758
1662155471.62280655 0.038733871692565 0.0294093105511142 0.0657923547856883 0.00104762903371614 -0.00121501610308531 -0.00308897274899052 0.999993942210563
1662155471.72474480 0.0387338468596926 0.0294182733378726 0.0658119422855052 0.00107768659651782 -0.00123277603708617 -0.00306879287018954 0.999993950664879
1662155471.82215548 0.0387329328834567 0.0294343873124028 0.0658401994533469 0.001179243969524 -0.00112638777078244 -0.00304274522505628 0.999994041150714
1662155471.92090368 0.0387330307165259 0.0294305833536092 0.0658527530686471 0.00115942547069687 -0.00105912507925458 -0.0031097967131224 0.999993931557706
1662155471.101899385 0.0387201780621733 0.0294451488192687 0.0658450443697838 0.00122951566408727 -0.000887282799585542 -0.0031190611737065 0.999993986221443
1662155471.112246513 0.0387073485694987 0.0294303708423692 0.0658273209803844 0.00113658360896958 -0.000833102059308881 -0.00311372408914502 0.999994159404017
1662155471.122193098 0.0387116547901369 0.029425818364873 0.0658213565683978 0.00111542833230127 -0.000924858103260823 -0.00311044393570203 0.99999411278109
1662155471.132076740 0.038715780404789 0.0294318425327049 0.0658189881728373 0.00115349391678767 -0.00107252189362898 -0.00305787746726528 0.999994084250081
1662155471.141698599 0.0387349083733166 0.0294173147755961 0.0658029297129865 0.00109228463677558 -0.00121403702648418 -0.00307740333085182 0.999993931290736
1662155471.152094126 0.0387235517626703 0.029427244237303 0.0658158581016274 0.0011266949053898 -0.00114332648023904 -0.00304655237602092 0.999994070923904
1662155471.162515163 0.0387242538090394 0.0294293515869011 0.0658302365109403 0.00111625659867795 -0.0010688829328784 -0.00306598196531001 0.999994105590759
1662155471.172075272 0.0387327573779551 0.0294250626758047 0.0658478364696875 0.00105979736387906 -0.0010183629691705 -0.00314804094520775 0.999993964784693
1662155471.182241201 0.0387273194045773 0.0294442230539291 0.0658521561670726 0.00117837914608781 -0.000915355466988578 -0.00311078728886869 0.999994048257584
1662155471.191880703 0.0387193842009606 0.0294360936538813 0.0658351920718848 0.00118129964998409 -0.000902865547564732 -0.00310292870666904 0.999994080582267
1662155471.202094793 0.0387261286555079 0.0294259597283409 0.0658182190558719 0.00114513637548467 -0.00109920422457769 -0.00307530827415548 0.999994011428551
1662155471.212174654 0.0387199423946037 0.0294097971321858 0.0658006871106668 0.00103287388659509 -0.00117365665140855 -0.00307091443041014 0.99999406257605
1662155471.222337008 0.0387129964767523 0.0294236726322195 0.0658079248452582 0.00109230740230486 -0.00111538490483498 -0.00302109935846686 0.999994217853739
1662155471.231996536 0.0387246831976951 0.0294208914159972 0.065802620808197 0.00106175150486601 -0.00110880583748736 -0.0030992677329697 0.999994018869147
1662155471.242586851 0.0387311036420227 0.0294385123059133 0.065832819605219 0.00114181852325833 -0.00109274987402961 -0.00311813836200579 0.999993889662592
1662155471.252007246 0.038732229831591 0.0294463048397769 0.0658496860107334 0.00117847455325203 -0.00108079178597744 -0.00310754643405148 0.99999389310295
1662155471.262120247 0.0387185711696089 0.0294343643452539 0.065855279407611 0.00119380118778 -0.000923112160323734 -0.0030756139829397 0.999994131634023
1662155471.272017002 0.0387305312771672 0.0294208870929162 0.0658457701446459 0.00116386353578537 -0.000982854299181113 -0.00307006547357113 0.999994127041892
1662155471.282956123 0.0387376433611175 0.029398394176278 0.0658396546126189 0.00100878793323825 -0.00114002496184337 -0.0031238297227362 0.999993962171296
1662155471.292183638 0.0387251077696351 0.0294110357853336 0.0658068110776719 0.00103921873565532 -0.00115903413334118 -0.00309627709953303 0.999993994848775
1662155471.302113771 0.0387332127102329 0.0294258727768419 0.0657871626524089 0.00107406328231501 -0.00125921976603269 -0.00307669748028992 0.999993897325105
1662155471.312228203 0.0387158127431387 0.0294259027013832 0.065790039800352 0.0010639200579469 -0.0010947552456237 -0.00309326089781203 0.999994050643939
1662155471.321911335 0.0387048878604549 0.0294371207508892 0.0658161207137092 0.00114421267560483 -0.00100060708442601 -0.0030806545933335 0.999994099548234
1662155471.331893682 0.038727429000832 0.0294232090724137 0.0658403222053678 0.00112144366835997 -0.000988757807459923 -0.00316118321300852 0.9999938858033
1662155471.342269421 0.0387121611924598 0.0294310309158753 0.0658714152491359 0.00122534892669533 -0.000855968434421633 -0.00308268421164593 0.999994131431425
1662155471.352213144 0.038783858112191 0.0294447468442443 0.065878172961564 0.00126012935185487 -0.00117923983464656 -0.00309514556144642 0.999993720751573
1662155471.361999512 0.0387436868791339 0.0294217930878731 0.0658484041651986 0.00112389705559907 -0.001098075633237 -0.00308394717689891 0.999994010160218
1662155471.372463465 0.0387319393048909 0.029413432686426 0.0658165783117723 0.00103010957259131 -0.00114446820083883 -0.0030992117181365 0.999994011959434
1662155471.382205248 0.0387241649822877 0.029433817571522 0.0657877836649691 0.00110370454369313 -0.00120485849594963 -0.00303770016287439 0.999994051247905
1662155471.392577171 0.038726667163533 0.0294239621155332 0.0657657751404479 0.00106613111962209 -0.00126313069307223 -0.00307791624987572 0.999993897130397
1662155471.402520895 0.0387333409143168 0.0294224630780435 0.0657927765537883 0.00110015706494093 -0.00120558096857392 -0.00310879850291311 0.999993835782012
1662155471.412092686 0.0387186519726285 0.029439501911647 0.0658414915919847 0.00122692448025163 -0.000982811879213074 -0.00308446833073661 0.999994007378763
1662155471.422023773 0.0387224345048798 0.0294264885058959 0.0658658408705049 0.0011657052806528 -0.000884361657183278 -0.00311288334692521 0.999994084479562
1662155471.433124065 0.0387251053176521 0.0294259383514496 0.0658683087207023 0.00114798395072963 -0.000817101112864548 -0.00311945856968774 0.999994141711862
1662155471.442256927 0.0387313084094645 0.0294074150561679 0.0658378335414357 0.00101984502778007 -0.000975485407552158 -0.00314537166092688 0.999994057473666
1662155471.452397823 0.0387277173167385 0.0294163809290317 0.0658073151916506 0.00106108814594796 -0.00107606586623996 -0.00304664316336233 0.999994217053691
1662155471.462272882 0.0387163577021136 0.0294237416085818 0.0657763833599538 0.00112576584010416 -0.00109279629707275 -0.0030223341130867 0.999994201955805
1662155471.472111940 0.0387311258449818 0.0294199502441976 0.0657691654085396 0.00106761218937793 -0.00126712510853759 -0.00309352663369593 0.999993842327207
1662155471.481954098 0.0387300436661189 0.0294242708123749 0.0657920305300178 0.00109069386476834 -0.00119208589909199 -0.00311885309653882 0.9999938310183
1662155471.491997719 0.0387209977474936 0.0294352577692802 0.065829346894187 0.00119013789376154 -0.00103826029765808 -0.00309606844502289 0.99999395995612
1662155471.501989603 0.0387157100747189 0.029435908578518 0.0658583886305867 0.00121124745324916 -0.000848023333365328 -0.0030841027455517 0.999994151006634
1662155471.512943029 0.0386985771468712 0.0294381827217917 0.065868715194388 0.00121846738175062 -0.000722977826458342 -0.0030322747719548 0.999994398959915
1662155471.522022963 0.0387161908200591 0.029431566050877 0.0658382563419629 0.00113527686209671 -0.000892609335397805 -0.00305642468362741 0.99999428631586
1662155471.532347679 0.0387246097334239 0.029420886682474 0.0658046461198784 0.00105494950533697 -0.00107743385154438 -0.00310326191900554 0.999994047974532
1662155471.542086601 0.0387308685790914 0.0294243771087483 0.0657937358038625 0.0010346350259417 -0.00123831460929144 -0.00310629864115342 0.999993873489851
1662155471.552037716 0.0387238577782035 0.0294136633872317 0.065782061341146 0.00101935104469185 -0.00122984088109736 -0.00312808131463953 0.999993831742644
1662155471.562104940 0.0387368676690806 0.0294129448100407 0.0658052537000928 0.00105131142859425 -0.00122971102771066 -0.0031248464887834 0.999993808926176
1662155471.572365284 0.0387414078630232 0.0294282868743119 0.0658355869275543 0.00113662071117925 -0.00113716050410152 -0.00310660841765521 0.999993881953624
1662155471.582756519 0.0387225761384828 0.0294250274509902 0.0658578377713745 0.00114144125890413 -0.000940293381606024 -0.00308205076577987 0.999994156945168
1662155471.591822386 0.0387195337528758 0.0294141645213013 0.065860618410029 0.00105956545074794 -0.00084261979253426 -0.00312331400331445 0.9999942060951
1662155471.602174759 0.0387197280972432 0.0294353370021739 0.0658390153914 0.0011878141182454 -0.000856434014384428 -0.00304130174484719 0.999994303035416
1662155471.612076521 0.038715278069887 0.0294225413455857 0.0657982871107657 0.00109523454794763 -0.00100360979234715 -0.00306025304731926 0.999994214023835
1662155471.622177362 0.0387201010346943 0.0294097361141646 0.0657706485933981 0.00102422745230663 -0.00118640402053897 -0.00311181683481962 0.999993929981979
1662155471.633084774 0.0387407881846374 0.0294039613636608 0.0657657382960038 0.000960830476936254 -0.00138170168127144 -0.00317658187914917 0.999993538496132
1662155471.643089056 0.0387283472547692 0.0294084906418192 0.0657927313809675 0.00098482116624922 -0.00121840422200703 -0.00314538457488338 0.999993826068686
1662155471.652707338 0.0387139798404219 0.0294428166110348 0.0658454822389025 0.00120116581528684 -0.000990037918664962 -0.0030801175853116 0.999994044933496
1662155471.661992788 0.0387205980490131 0.0294400756901119 0.0658683883675703 0.00120445479630231 -0.000881570693288038 -0.00309332551365937 0.999994101712712
1662155471.672023535 0.0387113609077008 0.0294315341697928 0.0658642457710673 0.00118164018759032 -0.000759260946324056 -0.00305825875220103 0.999994337135905
1662155471.682344913 0.0387157230320904 0.0294173016339693 0.065841694617127 0.00108816279708483 -0.000884469825514738 -0.00307495366069773 0.999994289121708
1662155471.692935705 0.0387163793109263 0.0294076430812351 0.0658109651425834 0.0010537789180463 -0.000999436549838631 -0.00308121151864944 0.999994198389842
1662155471.703300238 0.0387380334119954 0.0293994608780363 0.0657801760036586 0.00100052076862778 -0.0012600858394528 -0.00310823803571403 0.999993874980929
1662155471.712340832 0.0387411456644146 0.029414012407397 0.0657655779944106 0.00106845142545795 -0.00131487224882119 -0.00314154149241453 0.999993630100094
1662155471.722749233 0.0387498787063259 0.0294271783077027 0.0657847584371833 0.00114171868425873 -0.00140639695543873 -0.00313991043812395 0.999993429723256
1662155471.732481956 0.0387178293688936 0.0294472734419417 0.0658256748179104 0.00125329258145128 -0.00115277336296119 -0.00305534835956466 0.999993882590725
1662155471.741890669 0.0387138897264299 0.0294481821546692 0.0658591698846215 0.00124406267553134 -0.000846088327831915 -0.0030607809278702 0.999994184015039
1662155471.752485752 0.0387270483800988 0.0294370306570579 0.0658816011192534 0.00119964398906373 -0.000767745824320824 -0.00308282870390697 0.999994233777887
1662155471.762153387 0.0387168388933664 0.0294038118253138 0.0658588076874711 0.0010490261773631 -0.000744944790167607 -0.0031161671688655 0.999994317036205
1662155471.772240162 0.0387162763105874 0.0293938037894966 0.0658163984079343 0.000954646060884702 -0.000970120408162745 -0.00313343377690942 0.999994164538598
1662155471.781986713 0.038738631234195 0.0294143627177439 0.0657749340905311 0.00105118493434632 -0.00131157054045841 -0.00312854987784936 0.999993693465016
1662155471.791999578 0.0387365545472622 0.0294309102436761 0.0657706114831707 0.00115345204979388 -0.00140485721739209 -0.00309430015566191 0.999993560595419
1662155471.801922083 0.0387292080747738 0.0294405247872401 0.0657870431698762 0.00120081613300469 -0.00134058565387789 -0.00305861067125558 0.999993702866509
1662155471.812353373 0.0387213971085117 0.0294422786284733 0.0658189478607929 0.00123120873452577 -0.00107481917492229 -0.00306596425071557 0.999993964358384
1662155471.821831226 0.0387277721611691 0.0294253656104241 0.0658474744026538 0.00114711020890092 -0.0009200996489271 -0.00307998896274321 0.99999417559503
1662155471.832028389 0.0387190168604504 0.0294149639065642 0.0658723766439369 0.00108504997904571 -0.000701601967182538 -0.00310765061151553 0.999994336449007
1662155471.842410803 0.0387216816526589 0.0294107886133751 0.065866073048183 0.00107761413188027 -0.000747258135483104 -0.00310756153240847 0.999994311691609
1662155471.852160931 0.0386996411742371 0.0294338449574013 0.0658384965454159 0.00118657474944914 -0.000832309805027929 -0.00304275190876756 0.999994320465254
1662155471.861929417 0.0387029071409769 0.0294247741052586 0.0657996812961062 0.00112781279733977 -0.00103948134611239 -0.00309753312536599 0.999994026385434
1662155471.872286558 0.0387224034715061 0.0294253980622938 0.0657689225805622 0.00113200039162815 -0.00136943954103434 -0.00309187822894303 0.999993641730118
1662155471.882531643 0.038728403934479 0.0294190323433083 0.0657652053327398 0.00110757712548699 -0.00137147411794617 -0.00312152749656187 0.999993574178821
1662155471.892042160 0.0387289137912539 0.0294285518427581 0.0657962648614322 0.0011268557739998 -0.00118655476015597 -0.00310760849213482 0.999993832508239
1662155471.902006626 0.0387297037835958 0.0294117675781621 0.0658414041615016 0.0010514081702834 -0.000959906163135992 -0.00316522630542177 0.999993977214185
1662155471.912324429 0.0387283576800249 0.0294142027251247 0.0658692913679639 0.00106412732469321 -0.000813195159926647 -0.003149990626003 0.999994141936299
1662155471.922454834 0.0387175313234066 0.0294201872314089 0.0658819404007426 0.00108825234953704 -0.000768792540412605 -0.00310537042132111 0.999994290653997
1662155471.932553291 0.0387074454031044 0.029434072183152 0.0658481797339562 0.0011626253799988 -0.000860700810374498 -0.00303532439984256 0.999994347135682
1662155471.941819906 0.0387150809096844 0.0294240469991924 0.0658038633643118 0.00111174452110076 -0.00111314425740975 -0.00309352003552179 0.999993977516346
1662155471.952079535 0.0387431512105134 0.0294070963763969 0.0657766455823175 0.00100151783285351 -0.00139155381558196 -0.00321495794216043 0.999993362271285
1662155471.961996794 0.0387550795325485 0.02940837925398 0.0657622895190009 0.00104506292933576 -0.00145962360228727 -0.00318384161494186 0.999993320225778
1662155471.972200632 0.0387461681261215 0.0294023705043298 0.0657837029169871 0.00104686386268693 -0.00126289074615651 -0.00313179050136045 0.999993750516703
1662155471.982094049 0.0387185744585204 0.0294210096094201 0.0658278489130753 0.00112325980195169 -0.000849334528180011 -0.00308015095760509 0.999994264778326
1662155471.991971254 0.0387060425287013 0.0294283842495126 0.0658700846366189 0.00114125678675882 -0.000662934901353918 -0.00309727778351386 0.999994332444832
1662155472.1957417 0.0387084370721569 0.0294350927046248 0.0658797747383499 0.00117693532180437 -0.000702293423240393 -0.00308143778177 0.999994313158622
1662155472.12031555 0.0387140575311758 0.0294232672467359 0.0658578387939742 0.00112689736106057 -0.000908169183394583 -0.00311355439185161 0.999994105538283
1662155472.22017241 0.0387302158439593 0.0294157915469948 0.0658129404877596 0.0010977292521698 -0.00115543943940628 -0.00313153510542788 0.999993826700577
1662155472.32461405 0.0387319077733075 0.0294199514268052 0.0657805682198432 0.00109994658512684 -0.00136233706732221 -0.00314264972893752 0.999993528933611
1662155472.41805983 0.0387367858860529 0.0294196363775358 0.0657677398647427 0.00108511578532099 -0.00138274135835938 -0.00315077601712713 0.999993491559694
1662155472.52475214 0.0387491584734776 0.0294093049445883 0.0657794268028335 0.00101733862906869 -0.00125584279448053 -0.00317333917540843 0.999993658880224
1662155472.62135935 0.0387152855598851 0.0294132172566875 0.0658204306453056 0.00103504239338924 -0.000909554879817535 -0.00314338056354714 0.999994110261149
1662155472.72545528 0.0387051538616801 0.0294285032070657 0.0658718839697379 0.00116782679640713 -0.000681025022641454 -0.00305989855421086 0.999994404688106
1662155472.82402706 0.0387122850157098 0.0294137061485967 0.0658921948855629 0.00107321604987529 -0.000726076900407951 -0.00313278727061252 0.999994253315864
1662155472.92303038 0.0387209444349859 0.0294300898347996 0.0658811448792148 0.00116252835242691 -0.000929428023545862 -0.00308372194984496 0.999994137658569
1662155472.101813316 0.0387233087079586 0.0294217923154832 0.065830390772627 0.00112607686665785 -0.00112415473430512 -0.00313034168035942 0.999993834575583
1662155472.112022877 0.038729035744186 0.0294290381266434 0.0657780807798122 0.00115050396918585 -0.00130258856310703 -0.00312372549655225 0.999993610951522
1662155472.121740341 0.0387321879878094 0.0294219257891773 0.0657563827816979 0.00110096531136046 -0.00132752483537233 -0.00313311387121687 0.999993604555477
1662155472.132017851 0.038739868125843 0.0294130718373215 0.0657673666558871 0.00107300512813216 -0.00122886191023955 -0.00313071889640838 0.999993768559976
1662155472.141719580 0.0387221723703086 0.0294223950057867 0.065818379991429 0.00111588359334084 -0.000932284470357728 -0.00307740128370112 0.999994207609225
1662155472.152426004 0.0387226030329894 0.0294173310718619 0.065870147430519 0.00112373436949418 -0.00081859150672589 -0.00307876832056744 0.999994294141637
1662155472.162006617 0.0387192352610548 0.0294342199671763 0.0658976899943636 0.00119983893496257 -0.000765648210989357 -0.00304783681840894 0.999994342414629
1662155472.172108889 0.0387121959839315 0.029436621714059 0.0658864420295112 0.00121128402644982 -0.000858044364991282 -0.00308481629686893 0.999994140213071
1662155472.181960106 0.0387192862939376 0.0294345303051625 0.0658389517494089 0.00114333577637794 -0.00108466088866499 -0.00309640393609603 0.999993964270742
1662155472.192048073 0.0387249226838204 0.0294311665055411 0.0657802488752302 0.00114413085685054 -0.0012737030180793 -0.00308766093798422 0.999993767478741
1662155472.203048944 0.0387344106292498 0.0294198983630922 0.0657608322332055 0.00108605692528362 -0.00134251052784457 -0.0031220022281471 0.999993635604305
1662155472.212596655 0.0387381527111251 0.0294090446341216 0.0657615242044215 0.00103900833404394 -0.00130070337114214 -0.00307911404545707 0.999993873826389
1662155472.221850157 0.0387276654516637 0.0294186899959398 0.0658081965241763 0.00109608706971041 -0.0010877712009833 -0.00306419228975365 0.999994113019548
1662155472.232061386 0.0387138987436913 0.0294426738909585 0.065864905760561 0.0012131268028339 -0.000856198852350493 -0.00301496775966115 0.999994352592795
1662155472.258803844 0.0387208930775004 0.0294407029291358 0.0658801827877564 0.00125703020855911 -0.000756939305783781 -0.00303200106224516 0.999994326928253
1662155472.260751486 0.0387249911439858 0.0294435791473233 0.0658873093606819 0.0012491569499008 -0.000838383687890544 -0.00305854809878682 0.99999419098534
1662155472.262208223 0.0387316047756579 0.0294384847292823 0.0658608842036938 0.00123502928229661 -0.000965876837277247 -0.00307746149004953 0.9999940354905
1662155472.272699118 0.0387332965138617 0.0294177708645162 0.0657963600024995 0.00106985456561511 -0.00118697996869282 -0.00314198798517358 0.999993787181927
1662155472.282426596 0.0387144743745948 0.0294353762204633 0.0657686253648275 0.00111016229302657 -0.0012281480767143 -0.00310622134978208 0.999993805271863
1662155472.291985989 0.0387246744224495 0.0294230029383217 0.0657711854717941 0.00104583469500335 -0.00126137396463888 -0.00312132709104527 0.999993786222641
1662155472.302148819 0.0387284280298462 0.0294205432362438 0.065797362498379 0.00104986457258505 -0.00114429257999044 -0.00310415865583525 0.999993976271408
1662155472.312747717 0.0387031907383181 0.0294310281957056 0.0658454525348676 0.00118285614633589 -0.000868778519265328 -0.00301202549042158 0.999994386873675
1662155472.322420835 0.0387047673631037 0.0294281158944858 0.0658815386707413 0.00119295179640836 -0.000745286522537219 -0.00304521054747108 0.999994374038136
1662155472.331924677 0.0387076708812997 0.0294176380802417 0.065883456276111 0.00114122244252408 -0.000793027158977444 -0.00308620851525467 0.999994272002322
1662155472.342112303 0.0387175541522263 0.0294335987707002 0.0658620782879495 0.00116443524662178 -0.000942193145692049 -0.00310879934665199 0.999994045847497
1662155472.351995707 0.038736512450308 0.0294296931055255 0.0658217377637276 0.00111201838247684 -0.00122385270918895 -0.00310873200717859 0.999993800673865
1662155472.362263441 0.0387496634326896 0.0294208107980875 0.0657857774629212 0.00104138489810399 -0.00139385609998926 -0.0031547013532821 0.999993510250557
1662155472.372408390 0.0387324657936622 0.0294131493503675 0.0657669128552991 0.00104405009835698 -0.00129872578668123 -0.00311932249453213 0.999993746529992
1662155472.381851435 0.0387202702744554 0.0294258899099728 0.0657854349534018 0.00118387891774174 -0.00108671518778349 -0.00302053259389705 0.999994146915296
1662155472.391883850 0.0387151549075193 0.0294199394975684 0.065832122215971 0.00114635909642616 -0.000982201446173048 -0.00304206284982839 0.999994233481349
1662155472.402358770 0.0387130019541327 0.0294197830432994 0.0658721966439668 0.00111919301218318 -0.00082394068483982 -0.0031102473362749 0.999994197428889
1662155472.412101269 0.0387115680372045 0.0294425302008297 0.0658857947565992 0.00124265389624066 -0.000834005086954507 -0.00305636598317699 0.999994209420724
1662155472.422381639 0.0387156635914858 0.029422540132842 0.065865658332272 0.00111902666347167 -0.000961288360067765 -0.00315013601807191 0.999993950155837
1662155472.433148146 0.0387200367391804 0.029425824530508 0.0658184844851876 0.00109542620600617 -0.00111645524382296 -0.00312660415104866 0.999993888939723
1662155472.442564249 0.0387257639270294 0.0294325313859125 0.0657887162773596 0.00110057295497434 -0.00127503702813605 -0.00308914781768109 0.999993810074193
1662155472.451920033 0.0387169555015458 0.0294309712616768 0.0657832186210976 0.00110733141421698 -0.00125036826516509 -0.00305365982157701 0.999993942761269
1662155472.463112593 0.0387279312746289 0.0294265001246838 0.0658013256430321 0.00113208227457271 -0.00122313759972686 -0.00304975248307454 0.999993960649323
1662155472.471996069 0.0387126102911833 0.0294229773717848 0.0658256160271966 0.00117019616096012 -0.00105178418942527 -0.003027473211338 0.999994179382116
1662155472.482284784 0.038720506306426 0.0294222456320855 0.0658567292816398 0.0011588686331166 -0.000902443426262186 -0.00307481757950342 0.999994194041845
1662155472.492459774 0.0387170171188679 0.029427724554191 0.0658834981741639 0.00120783111237632 -0.000807399758276423 -0.00305897870166696 0.999994265933625
1662155472.502301455 0.0387258266080769 0.0294301786086658 0.0658729388231133 0.00116755389409883 -0.00090464381078161 -0.00310178445737016 0.999994098668513
1662155472.512057543 0.0387130662472877 0.0294411454507821 0.0658422443387673 0.00115439929002642 -0.00102023423770878 -0.00307193760442835 0.999994094825028
1662155472.521956682 0.0387198494398059 0.0294410484460145 0.0657927807669818 0.00114459034240001 -0.00124075889195425 -0.00306560393415868 0.999993876233266
1662155472.532741785 0.0387365154671493 0.02942377842809 0.0657675700116311 0.00109451602355546 -0.0014258835665659 -0.00305598237113632 0.999993714912083
1662155472.541979313 0.0387291533497748 0.0294116601186922 0.0657874673475077 0.00105560888861697 -0.00130572653925553 -0.00308988472668336 0.999993816671707
1662155472.553852558 0.0387322352573047 0.0294090818949167 0.065830788875639 0.00112312534702463 -0.00107389162794692 -0.00305671854930512 0.999994120892283
1662155472.562248468 0.0387111880968483 0.0294216015973703 0.0658791758020436 0.00119203798752182 -0.000822069469531886 -0.00306070345542452 0.999994267654957
1662155472.572301388 0.0387050917413639 0.0294298989854692 0.0658924873366648 0.00119382418370859 -0.000736587390343654 -0.00310024376660311 0.999994210339548
1662155472.581973553 0.0387234420421376 0.0294304873654489 0.0658732608868061 0.00112800841279075 -0.000944896877679994 -0.00312860150628754 0.999994023292499
1662155472.591932774 0.038703121805299 0.0294345471072029 0.0658368821825995 0.00111014308811148 -0.00106009118008058 -0.00310595658414849 0.999993998393943
1662155472.602090120 0.0387222377191888 0.0294228081049883 0.0657902673575385 0.00104606244626202 -0.00124706142921437 -0.00308833649603333 0.999993906366449
1662155472.612424135 0.0387234538008491 0.0294181532788494 0.0657696997447991 0.00109384028150853 -0.00129738816411449 -0.00307610352652746 0.999993828923798
1662155472.622011423 0.0387336957128598 0.0294027691173845 0.0657840774042918 0.00104871743672803 -0.00128947316727778 -0.00309834140056243 0.999993818847121
1662155472.632375002 0.0387270645867867 0.0294168219125052 0.0658284902416426 0.00112750553937884 -0.00110118345869275 -0.00305624959582608 0.999994087715448
1662155472.642136097 0.0387242234774792 0.0294272369985598 0.0658846743390026 0.00115809281088198 -0.000926159690355912 -0.00310012015457058 0.999994095135312
1662155472.651947260 0.0387227659264433 0.0294464141610434 0.0659112132763422 0.0012278114595471 -0.000813132602892419 -0.00309798010821041 0.999994116890111
1662155472.662267923 0.0387104307078246 0.0294391440686353 0.0658862018694437 0.00117434317802236 -0.000850818484318263 -0.00306752837566239 0.999994243631865
1662155472.672514915 0.038710540531967 0.0294114832660369 0.0658188443445303 0.00104269435628229 -0.00101005759052279 -0.00315568809538448 0.999993967084793
1662155472.682198286 0.038725044182091 0.0294176782626025 0.0657825914336384 0.00106754168984436 -0.00125911645145233 -0.00310753978267324 0.999993809069934
1662155472.691815853 0.0387314685633679 0.0293991952121356 0.0657699389418627 0.000999861291588323 -0.00139376303594381 -0.00312414914706893 0.99999364867748
1662155472.701832533 0.0387183597811651 0.0294195454242656 0.0657940898984111 0.00112612338759238 -0.00121888555958586 -0.00306178560418928 0.999993935798721
1662155472.711971521 0.0387113759827555 0.0294286348707533 0.0658272472895864 0.00119027368645125 -0.00102280266733367 -0.00305151779381033 0.999994112664471
1662155472.721990108 0.038694544608188 0.0294198222321742 0.0658633407002549 0.00114936483110488 -0.00081550413475077 -0.00312271266564734 0.999994131272925
1662155472.732570410 0.0387065077537171 0.0294439783094121 0.0659043849472573 0.00119332312991435 -0.00081661984603668 -0.00308752185315432 0.999994188144079
1662155472.742141247 0.0387051267424495 0.0294436882742517 0.0658877217122144 0.00115674671125576 -0.000853224235271495 -0.00309526810205222 0.999994176614054
1662155472.752140999 0.0387105760855661 0.0294359156523812 0.0658335404263257 0.00112412991088687 -0.0010114037388192 -0.0030615686802098 0.999994170079421
1662155472.762435436 0.0387211981518415 0.0294001221241699 0.0657812727337782 0.000974326889103999 -0.00123266158229067 -0.00312235977898222 0.999993891032911
1662155472.772128344 0.0387443892465276 0.0294007814541886 0.0657640120946889 0.00101632163280809 -0.00141566610962541 -0.00310571855906825 0.999993658726509
1662155472.782106400 0.0387311955657304 0.0294087173878939 0.0657837767454497 0.00104218982765583 -0.00129906680384176 -0.00308352016560684 0.999993859066336
1662155472.792169571 0.03873565961929 0.0294098820469517 0.0658408871837367 0.00105573794673391 -0.00117388231686868 -0.00315149872244393 0.999993787718048
1662155472.802406549 0.0387242753461662 0.029430945738843 0.0658790454435345 0.00117347094286872 -0.000916136855989612 -0.00311455923090171 0.999994041572847
1662155472.812142849 0.0387129005655869 0.0294480918491299 0.0658906402464057 0.00122573941900524 -0.000866479444085686 -0.00308616877508364 0.999994111152528
1662155472.821941137 0.0387005782798076 0.029445431156488 0.0658790041741252 0.00117900181248475 -0.000813000218186966 -0.00309930548019197 0.999994171629067
1662155472.832187891 0.0387057337016071 0.0294495922898055 0.0658484608426181 0.00119363491533176 -0.000996073379817847 -0.00302741832166012 0.999994208889737
1662155472.842792988 0.0387245759687415 0.0294257443408533 0.0657977915746895 0.00111835905958576 -0.00123982583553483 -0.00306765737474763 0.999993900773568
1662155472.852069139 0.0387367150704551 0.0294217014774721 0.0657758750331449 0.00112329587641659 -0.0013485136359325 -0.00304314783122207 0.999993829465872
1662155472.862151861 0.0387322663440764 0.029415945864051 0.065772209793035 0.00107410223836688 -0.00123590485793278 -0.00310679253931702 0.999993833323423
1662155472.871874571 0.0387348988497904 0.0294152480716783 0.0658213712170113 0.00106969544169159 -0.00117651814356615 -0.00312722143756678 0.999993846003061
1662155472.881972313 0.0387361379835237 0.0294249159022122 0.065878820475723 0.00111169249850813 -0.00102217645758963 -0.00312844696489825 0.999993966039725
1662155472.891795397 0.0387066510938008 0.0294470719405737 0.0659049982307655 0.00122311867926198 -0.000805689124020771 -0.00306920833021047 0.999994217386856
1662155472.902246952 0.0387109233596319 0.0294462872600504 0.0658860256103719 0.00115621570826124 -0.000873486768466563 -0.00309259894811952 0.999994167992514
1662155472.912106991 0.0387190664597938 0.0294338767903553 0.065836308728689 0.00108290853209092 -0.00111653849713521 -0.003095622754713 0.999993998867918
1662155472.921766281 0.0387282267526013 0.0294301646139636 0.0657946573756429 0.00111428056391584 -0.00125978057262274 -0.00305793026402145 0.999993910179171
1662155472.932427406 0.0387333547936328 0.0294054959537839 0.0657661312716874 0.00103609896266158 -0.00128645028625089 -0.00309694991424737 0.99999384020454
1662155472.941929579 0.0387336370342311 0.0294067098927728 0.0657751884204593 0.00110368271972629 -0.00122390963689908 -0.00310414529670755 0.999993824087342
1662155472.951976299 0.0387245359540528 0.029427265247537 0.0658173688505445 0.00118385344682847 -0.00109776888876857 -0.00307873719936961 0.99999395736821
1662155472.962946653 0.0387056624948493 0.0294373122435209 0.0658678260999333 0.00118516690520583 -0.000914880056078751 -0.00309614805658187 0.999994086103661
1662155472.971863270 0.0387158428741412 0.0294474640017316 0.0658908638931162 0.00119946609030595 -0.000903310567769452 -0.00310148325429698 0.999994063039343
1662155472.981900454 0.0387120695339645 0.0294470451926924 0.0658772465352745 0.00115409219081205 -0.000884400979503507 -0.00305940511588362 0.99999426295737
1662155472.991884708 0.0387125109487778 0.0294304388277558 0.0658312043433448 0.00110499259988524 -0.000978016007753879 -0.00307390287796252 0.99999418678227
1662155473.2016544 0.0387268727172711 0.0294132281767483 0.0657743849596796 0.00104453870753853 -0.00115192735229087 -0.00310525233040881 0.999993969687529
1662155473.11861801 0.0387315628020104 0.029423922828191 0.0657651124718254 0.00112463841230798 -0.00127214343059395 -0.00305139994271689 0.999993902880971
1662155473.22367716 0.0387272905467555 0.0294144599251992 0.0657773371986965 0.00117271331552886 -0.00119320499311888 -0.00300831802639087 0.999994075497035
1662155473.32295227 0.0387256799035083 0.0294174552385631 0.0658203222876146 0.00116394380161418 -0.00104084424141928 -0.00305720636914947 0.999994107666891
1662155473.42444706 0.0387085481891911 0.0294316369854917 0.0658712015790732 0.00117737308946882 -0.000874426665615047 -0.00310558863648658 0.999994102228123
1662155473.51884413 0.0386996408027999 0.029462549770569 0.0658832039487156 0.00126408451013812 -0.0008311872810993 -0.00303515168510122 0.999994249520215
1662155473.62032461 0.0386932215211279 0.029460437773602 0.0658601169909162 0.00123491002175722 -0.000858007416745696 -0.00304084195626272 0.999994246034397
1662155473.71688175 0.0386970337330913 0.0294310919709834 0.0658194959075838 0.00111743651904347 -0.00092460982406332 -0.00306481124072313 0.999994251666254
1662155473.82461357 0.0387248650232672 0.029413871203812 0.0657792178097418 0.00105099821351149 -0.00117678321942626 -0.00305520480934957 0.999994088136913
1662155473.91831923 0.0387319213149715 0.0294121837983588 0.0657663001344293 0.00109430162967802 -0.00123824513706218 -0.00305339873176985 0.999993972986989
1662155473.101842403 0.0387369820396927 0.0294087766940869 0.065792254086477 0.00110621162485856 -0.00123196713820365 -0.00306336653904088 0.999993937151348
1662155473.111840010 0.0387172078723729 0.0294299980641859 0.0658241911473313 0.00123034463437587 -0.00102938585949343 -0.00304576480780147 0.999994074949828
1662155473.121992588 0.0386983979667246 0.0294306315261772 0.065864284038232 0.00116878955004618 -0.000893548680331232 -0.0030749658343897 0.99999419002715
1662155473.132069349 0.0387101010482458 0.0294475362400615 0.0658898687363096 0.00119974193038413 -0.000870291215282254 -0.00308017897482448 0.999994157838524
1662155473.142270565 0.0387182599019993 0.0294517253523312 0.065858849524154 0.00118249700307751 -0.000963866639224974 -0.00304602930050147 0.999994197167481
1662155473.151859283 0.0387124836849163 0.0294327969609386 0.0658114984602437 0.00111325374964154 -0.00105072285124039 -0.00305085149958462 0.999994174459982
1662155473.162005186 0.0387219803778999 0.0294057169615457 0.0657667885788803 0.00100651035770224 -0.00118797768647004 -0.00310662393387079 0.999993962249195
1662155473.172054529 0.0387458334114924 0.0294008195491456 0.0657661051365877 0.000994636369364925 -0.00135552805416431 -0.00313063299488233 0.999993686170284
1662155473.181859970 0.0387363859118134 0.0294116379621313 0.0657943904888453 0.00105994341337844 -0.00121988929315688 -0.00309978335811165 0.999993889848533
1662155473.191746473 0.0387177716620172 0.029437771572793 0.0658382476850635 0.00119231581298096 -0.00106539856208871 -0.0030470848853643 0.999994079274373
1662155473.202523470 0.0387119598159236 0.0294342507706054 0.0658656409752237 0.00116551153455039 -0.000912612529242283 -0.00307251471544422 0.999994184170964
1662155473.212032557 0.0387132204028974 0.029438322077412 0.0658841031374919 0.00116471721608661 -0.000910001762828193 -0.00308180315662136 0.999994158893489
1662155473.221907854 0.0387125636967822 0.0294335357541374 0.0658615231746627 0.0011263676516429 -0.000954765282406085 -0.00306035550650699 0.999994226955605
1662155473.232050657 0.0387174806410961 0.0294353286242544 0.0658227947955539 0.00115535276201201 -0.00107241603653649 -0.00303370520552161 0.999994155841803
1662155473.242011786 0.0387290825609625 0.029400130998558 0.0657585432726086 0.00103926934857346 -0.00123261258752116 -0.00304715562358948 0.99999405769696
1662155473.251800776 0.0387381613266017 0.0294015120696538 0.0657565749295035 0.00102187230210178 -0.00131407577951502 -0.00309243077244182 0.999993832908461
1662155473.262422085 0.0387215685673374 0.0294187640428478 0.0657896464604112 0.00110232475462687 -0.001139545828856 -0.00309145494267214 0.999993964593272
1662155473.271883965 0.0387042643881896 0.0294412633869329 0.0658439873661104 0.00118393378328017 -0.000967303180953978 -0.00307073400921159 0.999994116592289
1662155473.282008171 0.0386880670770988 0.0294619441618332 0.0658911742686418 0.00126882469608404 -0.000800340188415823 -0.00303320919348758 0.999994274574938
1662155473.291811943 0.0386897717282251 0.0294634158550133 0.0658971054878374 0.00128105740758118 -0.000839290003789125 -0.00297665410690863 0.999994396992168
1662155473.303009033 0.0387001602789176 0.0294244581562544 0.065851494397299 0.00111971011519236 -0.000908856317661803 -0.00299116658378178 0.999994486561358
1662155473.312044621 0.038715264195102 0.0294209814161384 0.0658133779441148 0.00110467709091554 -0.00108912273750461 -0.00302337720798188 0.999994226329152
1662155473.322467089 0.0387227728019869 0.0294189924594251 0.0657689471210191 0.0011485935383989 -0.00122837067168166 -0.00302087024406675 0.999994023073408
1662155473.331816673 0.0387264059183591 0.0294185473941936 0.0657672406054898 0.00113856983636802 -0.00126781643825961 -0.00305761949739918 0.999993873613439
1662155473.341821194 0.0387207544228096 0.0294328263758163 0.0658070094910896 0.00118166246151454 -0.00115494126645261 -0.00306676850730553 0.9999939323399
1662155473.352129936 0.0386913412126159 0.029453125345536 0.065863222123996 0.00122883055119487 -0.000914295316057915 -0.0030175533734982 0.9999942741898
1662155473.361993790 0.0386938795582886 0.0294545615855197 0.0658982383400664 0.00123210161171113 -0.000792244727220649 -0.00304038470756251 0.999994305151752
1662155473.374157190 0.0386929800210357 0.0294461867089663 0.0658861358231952 0.0012266038757128 -0.000833128136261232 -0.00300137121305038 0.999994396540539
